$GPGGA,155638.243,5241.382,N,01440.499,E,1,12,1.0,0.0,M,0.0,M,,*69
$GPGSA,A,3,01,02,03,04,05,06,07,08,09,10,11,12,1.0,1.0,1.0*30
$GPRMC,155638.243,A,5241.382,N,01440.499,E,29376.6,257.9,020324,000.0,W*7C
$GPGGA,155639.243,5238.684,N,01427.810,E,1,12,1.0,0.0,M,0.0,M,,*69
$GPGSA,A,3,01,02,03,04,05,06,07,08,09,10,11,12,1.0,1.0,1.0*30
$GPRMC,155639.243,A,5238.684,N,01427.810,E,23720.2,240.2,020324,000.0,W*78
$GPGGA,155640.243,5234.180,N,01419.900,E,1,12,1.0,0.0,M,0.0,M,,*65
$GPGSA,A,3,01,02,03,04,05,06,07,08,09,10,11,12,1.0,1.0,1.0*30
$GPRMC,155640.243,A,5234.180,N,01419.900,E,23680.1,212.8,020324,000.0,W*71
$GPGGA,155641.243,5228.063,N,01415.945,E,1,12,1.0,0.0,M,0.0,M,,*68
$GPGSA,A,3,01,02,03,04,05,06,07,08,09,10,11,12,1.0,1.0,1.0*30
$GPRMC,155641.243,A,5228.063,N,01415.945,E,29339.9,180.0,020324,000.0,W*79
$GPGGA,155642.243,5219.919,N,01415.945,E,1,12,1.0,0.0,M,0.0,M,,*6D
$GPGSA,A,3,01,02,03,04,05,06,07,08,09,10,11,12,1.0,1.0,1.0*30
$GPRMC,155642.243,A,5219.919,N,01415.945,E,22553.0,156.5,020324,000.0,W*7A
$GPGGA,155643.243,5213.870,N,01418.582,E,1,12,1.0,0.0,M,0.0,M,,*62
$GPGSA,A,3,01,02,03,04,05,06,07,08,09,10,11,12,1.0,1.0,1.0*30
$GPRMC,155643.243,A,5213.870,N,01418.582,E,21768.9,128.0,020324,000.0,W*79
$GPGGA,155644.243,5209.122,N,01424.679,E,1,12,1.0,0.0,M,0.0,M,,*68
$GPGSA,A,3,01,02,03,04,05,06,07,08,09,10,11,12,1.0,1.0,1.0*30
$GPRMC,155644.243,A,5209.122,N,01424.679,E,24651.7,116.0,020324,000.0,W*7E
$GPGGA,155645.243,5204.872,N,01433.413,E,1,12,1.0,0.0,M,0.0,M,,*60
$GPGSA,A,3,01,02,03,04,05,06,07,08,09,10,11,12,1.0,1.0,1.0*30
$GPRMC,155645.243,A,5204.872,N,01433.413,E,20247.4,108.1,020324,000.0,W*7C
$GPGGA,155646.243,5202.237,N,01441.488,E,1,12,1.0,0.0,M,0.0,M,,*69
$GPGSA,A,3,01,02,03,04,05,06,07,08,09,10,11,12,1.0,1.0,1.0*30
$GPRMC,155646.243,A,5202.237,N,01441.488,E,30713.9,317.0,020324,000.0,W*70
$GPGGA,155647.243,5209.627,N,01434.567,E,1,12,1.0,0.0,M,0.0,M,,*64
$GPGSA,A,3,01,02,03,04,05,06,07,08,09,10,11,12,1.0,1.0,1.0*30
$GPRMC,155647.243,A,5209.627,N,01434.567,E,34113.6,315.1,020324,000.0,W*73
$GPGGA,155648.243,5217.703,N,01426.492,E,1,12,1.0,0.0,M,0.0,M,,*6B
$GPGSA,A,3,01,02,03,04,05,06,07,08,09,10,11,12,1.0,1.0,1.0*30
$GPRMC,155648.243,A,5217.703,N,01426.492,E,22781.3,338.2,020324,000.0,W*7F
$GPGGA,155649.243,5223.843,N,01424.020,E,1,12,1.0,0.0,M,0.0,M,,*69
$GPGSA,A,3,01,02,03,04,05,06,07,08,09,10,11,12,1.0,1.0,1.0*30
$GPRMC,155649.243,A,5223.843,N,01424.020,E,23570.8,027.8,020324,000.0,W*7C
$GPGGA,155650.243,5230.071,N,01427.316,E,1,12,1.0,0.0,M,0.0,M,,*6F
$GPGSA,A,3,01,02,03,04,05,06,07,08,09,10,11,12,1.0,1.0,1.0*30
$GPRMC,155650.243,A,5230.071,N,01427.316,E,23463.5,034.3,020324,000.0,W*7D
$GPGGA,155651.243,5236.083,N,01431.436,E,1,12,1.0,0.0,M,0.0,M,,*67
$GPGSA,A,3,01,02,03,04,05,06,07,08,09,10,11,12,1.0,1.0,1.0*30
$GPRMC,155651.243,A,5236.083,N,01431.436,E,27772.8,060.0,020324,000.0,W*7D
$GPGGA,155652.243,5241.382,N,01440.664,E,1,12,1.0,0.0,M,0.0,M,,*65
$GPGSA,A,3,01,02,03,04,05,06,07,08,09,10,11,12,1.0,1.0,1.0*30
$GPRMC,155652.243,A,5241.382,N,01440.664,E,91678.7,120.2,020324,000.0,W*71
$GPGGA,155653.243,5223.843,N,01510.986,E,1,12,1.0,0.0,M,0.0,M,,*61
$GPGSA,A,3,01,02,03,04,05,06,07,08,09,10,11,12,1.0,1.0,1.0*30
$GPRMC,155653.243,A,5223.843,N,01510.986,E,66316.7,233.2,020324,000.0,W*71
$GPGGA,155654.243,5209.627,N,01451.870,E,1,12,1.0,0.0,M,0.0,M,,*6E
$GPGSA,A,3,01,02,03,04,05,06,07,08,09,10,11,12,1.0,1.0,1.0*30
$GPRMC,155654.243,A,5209.627,N,01451.870,E,60288.5,318.6,020324,000.0,W*70
$GPGGA,155655.243,5224.346,N,01438.851,E,1,12,1.0,0.0,M,0.0,M,,*6E
$GPGSA,A,3,01,02,03,04,05,06,07,08,09,10,11,12,1.0,1.0,1.0*30
$GPRMC,155655.243,A,5224.346,N,01438.851,E,89159.4,109.8,020324,000.0,W*75
$GPGGA,155656.243,5211.850,N,01513.788,E,1,12,1.0,0.0,M,0.0,M,,*64
$GPGSA,A,3,01,02,03,04,05,06,07,08,09,10,11,12,1.0,1.0,1.0*30
$GPRMC,155656.243,A,5211.850,N,01513.788,E,74434.2,274.5,020324,000.0,W*71
$GPGGA,155657.243,5214.475,N,01440.334,E,1,12,1.0,0.0,M,0.0,M,,*6F
$GPGSA,A,3,01,02,03,04,05,06,07,08,09,10,11,12,1.0,1.0,1.0*30
$GPRMC,155657.243,A,5214.475,N,01440.334,E,75462.6,072.9,020324,000.0,W*74
$GPGGA,155658.243,5223.843,N,01510.986,E,1,12,1.0,0.0,M,0.0,M,,*6A
$GPGSA,A,3,01,02,03,04,05,06,07,08,09,10,11,12,1.0,1.0,1.0*30
$GPRMC,155658.243,A,5223.843,N,01510.986,E,75462.6,072.9,020324,000.0,W*71
