$GPGGA,202852.224,4215.262,N,07143.351,W,1,12,1.0,0.0,M,0.0,M,,*75
$GPGSA,A,3,01,02,03,04,05,06,07,08,09,10,11,12,1.0,1.0,1.0*30
$GPRMC,202852.224,A,4215.262,N,07143.351,W,038.9,360.0,020324,000.0,W*61
$GPGGA,202853.224,4215.273,N,07143.351,W,1,12,1.0,0.0,M,0.0,M,,*74
$GPGSA,A,3,01,02,03,04,05,06,07,08,09,10,11,12,1.0,1.0,1.0*30
$GPRMC,202853.224,A,4215.273,N,07143.351,W,038.9,360.0,020324,000.0,W*60
$GPGGA,202854.224,4215.284,N,07143.351,W,1,12,1.0,0.0,M,0.0,M,,*7B
$GPGSA,A,3,01,02,03,04,05,06,07,08,09,10,11,12,1.0,1.0,1.0*30
$GPRMC,202854.224,A,4215.284,N,07143.351,W,038.9,360.0,020324,000.0,W*6F
$GPGGA,202855.224,4215.294,N,07143.351,W,1,12,1.0,0.0,M,0.0,M,,*7B
$GPGSA,A,3,01,02,03,04,05,06,07,08,09,10,11,12,1.0,1.0,1.0*30
$GPRMC,202855.224,A,4215.294,N,07143.351,W,038.9,360.0,020324,000.0,W*6F
$GPGGA,202856.224,4215.305,N,07143.351,W,1,12,1.0,0.0,M,0.0,M,,*71
$GPGSA,A,3,01,02,03,04,05,06,07,08,09,10,11,12,1.0,1.0,1.0*30
$GPRMC,202856.224,A,4215.305,N,07143.351,W,038.9,360.0,020324,000.0,W*65
$GPGGA,202857.224,4215.316,N,07143.351,W,1,12,1.0,0.0,M,0.0,M,,*72
$GPGSA,A,3,01,02,03,04,05,06,07,08,09,10,11,12,1.0,1.0,1.0*30
$GPRMC,202857.224,A,4215.316,N,07143.351,W,038.9,360.0,020324,000.0,W*66
$GPGGA,202858.224,4215.327,N,07143.351,W,1,12,1.0,0.0,M,0.0,M,,*7F
$GPGSA,A,3,01,02,03,04,05,06,07,08,09,10,11,12,1.0,1.0,1.0*30
$GPRMC,202858.224,A,4215.327,N,07143.351,W,038.9,360.0,020324,000.0,W*6B
$GPGGA,202859.224,4215.338,N,07143.351,W,1,12,1.0,0.0,M,0.0,M,,*70
$GPGSA,A,3,01,02,03,04,05,06,07,08,09,10,11,12,1.0,1.0,1.0*30
$GPRMC,202859.224,A,4215.338,N,07143.351,W,038.9,360.0,020324,000.0,W*64
$GPGGA,202900.224,4215.348,N,07143.351,W,1,12,1.0,0.0,M,0.0,M,,*7A
$GPGSA,A,3,01,02,03,04,05,06,07,08,09,10,11,12,1.0,1.0,1.0*30
$GPRMC,202900.224,A,4215.348,N,07143.351,W,038.9,360.0,020324,000.0,W*6E
$GPGGA,202901.224,4215.359,N,07143.351,W,1,12,1.0,0.0,M,0.0,M,,*7B
$GPGSA,A,3,01,02,03,04,05,06,07,08,09,10,11,12,1.0,1.0,1.0*30
$GPRMC,202901.224,A,4215.359,N,07143.351,W,038.9,360.0,020324,000.0,W*6F
$GPGGA,202902.224,4215.370,N,07143.351,W,1,12,1.0,0.0,M,0.0,M,,*73
$GPGSA,A,3,01,02,03,04,05,06,07,08,09,10,11,12,1.0,1.0,1.0*30
$GPRMC,202902.224,A,4215.370,N,07143.351,W,038.9,360.0,020324,000.0,W*67
$GPGGA,202903.224,4215.381,N,07143.351,W,1,12,1.0,0.0,M,0.0,M,,*7C
$GPGSA,A,3,01,02,03,04,05,06,07,08,09,10,11,12,1.0,1.0,1.0*30
$GPRMC,202903.224,A,4215.381,N,07143.351,W,038.9,360.0,020324,000.0,W*68
$GPGGA,202904.224,4215.392,N,07143.351,W,1,12,1.0,0.0,M,0.0,M,,*79
$GPGSA,A,3,01,02,03,04,05,06,07,08,09,10,11,12,1.0,1.0,1.0*30
$GPRMC,202904.224,A,4215.392,N,07143.351,W,038.9,360.0,020324,000.0,W*6D
$GPGGA,202905.224,4215.402,N,07143.351,W,1,12,1.0,0.0,M,0.0,M,,*76
$GPGSA,A,3,01,02,03,04,05,06,07,08,09,10,11,12,1.0,1.0,1.0*30
$GPRMC,202905.224,A,4215.402,N,07143.351,W,038.9,360.0,020324,000.0,W*62
$GPGGA,202906.224,4215.413,N,07143.351,W,1,12,1.0,0.0,M,0.0,M,,*75
$GPGSA,A,3,01,02,03,04,05,06,07,08,09,10,11,12,1.0,1.0,1.0*30
$GPRMC,202906.224,A,4215.413,N,07143.351,W,038.9,360.0,020324,000.0,W*61
$GPGGA,202907.224,4215.424,N,07143.351,W,1,12,1.0,0.0,M,0.0,M,,*70
$GPGSA,A,3,01,02,03,04,05,06,07,08,09,10,11,12,1.0,1.0,1.0*30
$GPRMC,202907.224,A,4215.424,N,07143.351,W,038.9,360.0,020324,000.0,W*64
$GPGGA,202908.224,4215.435,N,07143.351,W,1,12,1.0,0.0,M,0.0,M,,*7F
$GPGSA,A,3,01,02,03,04,05,06,07,08,09,10,11,12,1.0,1.0,1.0*30
$GPRMC,202908.224,A,4215.435,N,07143.351,W,038.9,360.0,020324,000.0,W*6B
$GPGGA,202909.224,4215.445,N,07143.351,W,1,12,1.0,0.0,M,0.0,M,,*79
$GPGSA,A,3,01,02,03,04,05,06,07,08,09,10,11,12,1.0,1.0,1.0*30
$GPRMC,202909.224,A,4215.445,N,07143.351,W,038.9,360.0,020324,000.0,W*6D
$GPGGA,202910.224,4215.456,N,07143.351,W,1,12,1.0,0.0,M,0.0,M,,*73
$GPGSA,A,3,01,02,03,04,05,06,07,08,09,10,11,12,1.0,1.0,1.0*30
$GPRMC,202910.224,A,4215.456,N,07143.351,W,038.9,360.0,020324,000.0,W*67
$GPGGA,202911.224,4215.467,N,07143.351,W,1,12,1.0,0.0,M,0.0,M,,*70
$GPGSA,A,3,01,02,03,04,05,06,07,08,09,10,11,12,1.0,1.0,1.0*30
$GPRMC,202911.224,A,4215.467,N,07143.351,W,038.9,360.0,020324,000.0,W*64
$GPGGA,202912.224,4215.478,N,07143.351,W,1,12,1.0,0.0,M,0.0,M,,*7D
$GPGSA,A,3,01,02,03,04,05,06,07,08,09,10,11,12,1.0,1.0,1.0*30
$GPRMC,202912.224,A,4215.478,N,07143.351,W,038.9,360.0,020324,000.0,W*69
$GPGGA,202913.224,4215.489,N,07143.351,W,1,12,1.0,0.0,M,0.0,M,,*72
$GPGSA,A,3,01,02,03,04,05,06,07,08,09,10,11,12,1.0,1.0,1.0*30
$GPRMC,202913.224,A,4215.489,N,07143.351,W,038.9,360.0,020324,000.0,W*66
$GPGGA,202914.224,4215.499,N,07143.351,W,1,12,1.0,0.0,M,0.0,M,,*74
$GPGSA,A,3,01,02,03,04,05,06,07,08,09,10,11,12,1.0,1.0,1.0*30
$GPRMC,202914.224,A,4215.499,N,07143.351,W,038.9,360.0,020324,000.0,W*60
$GPGGA,202915.224,4215.510,N,07143.351,W,1,12,1.0,0.0,M,0.0,M,,*75
$GPGSA,A,3,01,02,03,04,05,06,07,08,09,10,11,12,1.0,1.0,1.0*30
$GPRMC,202915.224,A,4215.510,N,07143.351,W,038.9,360.0,020324,000.0,W*61
$GPGGA,202916.224,4215.521,N,07143.351,W,1,12,1.0,0.0,M,0.0,M,,*74
$GPGSA,A,3,01,02,03,04,05,06,07,08,09,10,11,12,1.0,1.0,1.0*30
$GPRMC,202916.224,A,4215.521,N,07143.351,W,038.9,360.0,020324,000.0,W*60
$GPGGA,202917.224,4215.532,N,07143.351,W,1,12,1.0,0.0,M,0.0,M,,*77
$GPGSA,A,3,01,02,03,04,05,06,07,08,09,10,11,12,1.0,1.0,1.0*30
$GPRMC,202917.224,A,4215.532,N,07143.351,W,038.9,360.0,020324,000.0,W*63
$GPGGA,202918.224,4215.543,N,07143.351,W,1,12,1.0,0.0,M,0.0,M,,*7E
$GPGSA,A,3,01,02,03,04,05,06,07,08,09,10,11,12,1.0,1.0,1.0*30
$GPRMC,202918.224,A,4215.543,N,07143.351,W,038.9,360.0,020324,000.0,W*6A
$GPGGA,202919.224,4215.553,N,07143.351,W,1,12,1.0,0.0,M,0.0,M,,*7E
$GPGSA,A,3,01,02,03,04,05,06,07,08,09,10,11,12,1.0,1.0,1.0*30
$GPRMC,202919.224,A,4215.553,N,07143.351,W,038.9,360.0,020324,000.0,W*6A
$GPGGA,202920.224,4215.564,N,07143.351,W,1,12,1.0,0.0,M,0.0,M,,*70
$GPGSA,A,3,01,02,03,04,05,06,07,08,09,10,11,12,1.0,1.0,1.0*30
$GPRMC,202920.224,A,4215.564,N,07143.351,W,038.9,360.0,020324,000.0,W*64
$GPGGA,202921.224,4215.575,N,07143.351,W,1,12,1.0,0.0,M,0.0,M,,*71
$GPGSA,A,3,01,02,03,04,05,06,07,08,09,10,11,12,1.0,1.0,1.0*30
$GPRMC,202921.224,A,4215.575,N,07143.351,W,038.9,360.0,020324,000.0,W*65
$GPGGA,202922.224,4215.586,N,07143.352,W,1,12,1.0,0.0,M,0.0,M,,*7D
$GPGSA,A,3,01,02,03,04,05,06,07,08,09,10,11,12,1.0,1.0,1.0*30
$GPRMC,202922.224,A,4215.586,N,07143.352,W,038.9,360.0,020324,000.0,W*69
$GPGGA,202923.224,4215.597,N,07143.352,W,1,12,1.0,0.0,M,0.0,M,,*7C
$GPGSA,A,3,01,02,03,04,05,06,07,08,09,10,11,12,1.0,1.0,1.0*30
$GPRMC,202923.224,A,4215.597,N,07143.352,W,038.9,360.0,020324,000.0,W*68
$GPGGA,202924.224,4215.607,N,07143.352,W,1,12,1.0,0.0,M,0.0,M,,*71
$GPGSA,A,3,01,02,03,04,05,06,07,08,09,10,11,12,1.0,1.0,1.0*30
$GPRMC,202924.224,A,4215.607,N,07143.352,W,038.9,360.0,020324,000.0,W*65
$GPGGA,202925.224,4215.618,N,07143.352,W,1,12,1.0,0.0,M,0.0,M,,*7E
$GPGSA,A,3,01,02,03,04,05,06,07,08,09,10,11,12,1.0,1.0,1.0*30
$GPRMC,202925.224,A,4215.618,N,07143.352,W,038.9,360.0,020324,000.0,W*6A
$GPGGA,202926.224,4215.629,N,07143.352,W,1,12,1.0,0.0,M,0.0,M,,*7F
$GPGSA,A,3,01,02,03,04,05,06,07,08,09,10,11,12,1.0,1.0,1.0*30
$GPRMC,202926.224,A,4215.629,N,07143.352,W,038.9,360.0,020324,000.0,W*6B
$GPGGA,202927.224,4215.640,N,07143.352,W,1,12,1.0,0.0,M,0.0,M,,*71
$GPGSA,A,3,01,02,03,04,05,06,07,08,09,10,11,12,1.0,1.0,1.0*30
$GPRMC,202927.224,A,4215.640,N,07143.352,W,038.9,360.0,020324,000.0,W*65
$GPGGA,202928.224,4215.651,N,07143.352,W,1,12,1.0,0.0,M,0.0,M,,*7E
$GPGSA,A,3,01,02,03,04,05,06,07,08,09,10,11,12,1.0,1.0,1.0*30
$GPRMC,202928.224,A,4215.651,N,07143.352,W,038.9,360.0,020324,000.0,W*6A
$GPGGA,202929.224,4215.661,N,07143.352,W,1,12,1.0,0.0,M,0.0,M,,*7C
$GPGSA,A,3,01,02,03,04,05,06,07,08,09,10,11,12,1.0,1.0,1.0*30
$GPRMC,202929.224,A,4215.661,N,07143.352,W,038.9,360.0,020324,000.0,W*68
$GPGGA,202930.224,4215.672,N,07143.352,W,1,12,1.0,0.0,M,0.0,M,,*76
$GPGSA,A,3,01,02,03,04,05,06,07,08,09,10,11,12,1.0,1.0,1.0*30
$GPRMC,202930.224,A,4215.672,N,07143.352,W,038.9,360.0,020324,000.0,W*62
$GPGGA,202931.224,4215.683,N,07143.352,W,1,12,1.0,0.0,M,0.0,M,,*79
$GPGSA,A,3,01,02,03,04,05,06,07,08,09,10,11,12,1.0,1.0,1.0*30
$GPRMC,202931.224,A,4215.683,N,07143.352,W,038.9,360.0,020324,000.0,W*6D
$GPGGA,202932.224,4215.694,N,07143.352,W,1,12,1.0,0.0,M,0.0,M,,*7C
$GPGSA,A,3,01,02,03,04,05,06,07,08,09,10,11,12,1.0,1.0,1.0*30
$GPRMC,202932.224,A,4215.694,N,07143.352,W,038.9,360.0,020324,000.0,W*68
$GPGGA,202933.224,4215.705,N,07143.352,W,1,12,1.0,0.0,M,0.0,M,,*74
$GPGSA,A,3,01,02,03,04,05,06,07,08,09,10,11,12,1.0,1.0,1.0*30
$GPRMC,202933.224,A,4215.705,N,07143.352,W,038.9,360.0,020324,000.0,W*60
$GPGGA,202934.224,4215.715,N,07143.352,W,1,12,1.0,0.0,M,0.0,M,,*72
$GPGSA,A,3,01,02,03,04,05,06,07,08,09,10,11,12,1.0,1.0,1.0*30
$GPRMC,202934.224,A,4215.715,N,07143.352,W,038.9,360.0,020324,000.0,W*66
$GPGGA,202935.224,4215.726,N,07143.352,W,1,12,1.0,0.0,M,0.0,M,,*73
$GPGSA,A,3,01,02,03,04,05,06,07,08,09,10,11,12,1.0,1.0,1.0*30
$GPRMC,202935.224,A,4215.726,N,07143.352,W,038.9,360.0,020324,000.0,W*67
$GPGGA,202936.224,4215.737,N,07143.352,W,1,12,1.0,0.0,M,0.0,M,,*70
$GPGSA,A,3,01,02,03,04,05,06,07,08,09,10,11,12,1.0,1.0,1.0*30
$GPRMC,202936.224,A,4215.737,N,07143.352,W,038.9,360.0,020324,000.0,W*64
$GPGGA,202937.224,4215.748,N,07143.352,W,1,12,1.0,0.0,M,0.0,M,,*79
$GPGSA,A,3,01,02,03,04,05,06,07,08,09,10,11,12,1.0,1.0,1.0*30
$GPRMC,202937.224,A,4215.748,N,07143.352,W,038.9,360.0,020324,000.0,W*6D
$GPGGA,202938.224,4215.758,N,07143.352,W,1,12,1.0,0.0,M,0.0,M,,*77
$GPGSA,A,3,01,02,03,04,05,06,07,08,09,10,11,12,1.0,1.0,1.0*30
$GPRMC,202938.224,A,4215.758,N,07143.352,W,038.9,360.0,020324,000.0,W*63
$GPGGA,202939.224,4215.769,N,07143.352,W,1,12,1.0,0.0,M,0.0,M,,*74
$GPGSA,A,3,01,02,03,04,05,06,07,08,09,10,11,12,1.0,1.0,1.0*30
$GPRMC,202939.224,A,4215.769,N,07143.352,W,038.9,360.0,020324,000.0,W*60
$GPGGA,202940.224,4215.780,N,07143.352,W,1,12,1.0,0.0,M,0.0,M,,*7D
$GPGSA,A,3,01,02,03,04,05,06,07,08,09,10,11,12,1.0,1.0,1.0*30
$GPRMC,202940.224,A,4215.780,N,07143.352,W,038.9,360.0,020324,000.0,W*69
$GPGGA,202941.224,4215.791,N,07143.352,W,1,12,1.0,0.0,M,0.0,M,,*7C
$GPGSA,A,3,01,02,03,04,05,06,07,08,09,10,11,12,1.0,1.0,1.0*30
$GPRMC,202941.224,A,4215.791,N,07143.352,W,038.9,360.0,020324,000.0,W*68
$GPGGA,202942.224,4215.802,N,07143.352,W,1,12,1.0,0.0,M,0.0,M,,*7A
$GPGSA,A,3,01,02,03,04,05,06,07,08,09,10,11,12,1.0,1.0,1.0*30
$GPRMC,202942.224,A,4215.802,N,07143.352,W,038.9,360.0,020324,000.0,W*6E
$GPGGA,202943.224,4215.812,N,07143.352,W,1,12,1.0,0.0,M,0.0,M,,*7A
$GPGSA,A,3,01,02,03,04,05,06,07,08,09,10,11,12,1.0,1.0,1.0*30
$GPRMC,202943.224,A,4215.812,N,07143.352,W,038.9,360.0,020324,000.0,W*6E
$GPGGA,202944.224,4215.823,N,07143.352,W,1,12,1.0,0.0,M,0.0,M,,*7F
$GPGSA,A,3,01,02,03,04,05,06,07,08,09,10,11,12,1.0,1.0,1.0*30
$GPRMC,202944.224,A,4215.823,N,07143.352,W,038.9,360.0,020324,000.0,W*6B
$GPGGA,202945.224,4215.834,N,07143.352,W,1,12,1.0,0.0,M,0.0,M,,*78
$GPGSA,A,3,01,02,03,04,05,06,07,08,09,10,11,12,1.0,1.0,1.0*30
$GPRMC,202945.224,A,4215.834,N,07143.352,W,038.9,360.0,020324,000.0,W*6C
$GPGGA,202946.224,4215.845,N,07143.352,W,1,12,1.0,0.0,M,0.0,M,,*7D
$GPGSA,A,3,01,02,03,04,05,06,07,08,09,10,11,12,1.0,1.0,1.0*30
$GPRMC,202946.224,A,4215.845,N,07143.352,W,038.9,360.0,020324,000.0,W*69
$GPGGA,202947.224,4215.856,N,07143.352,W,1,12,1.0,0.0,M,0.0,M,,*7E
$GPGSA,A,3,01,02,03,04,05,06,07,08,09,10,11,12,1.0,1.0,1.0*30
$GPRMC,202947.224,A,4215.856,N,07143.352,W,038.9,360.0,020324,000.0,W*6A
$GPGGA,202948.224,4215.866,N,07143.352,W,1,12,1.0,0.0,M,0.0,M,,*72
$GPGSA,A,3,01,02,03,04,05,06,07,08,09,10,11,12,1.0,1.0,1.0*30
$GPRMC,202948.224,A,4215.866,N,07143.352,W,038.9,360.0,020324,000.0,W*66
$GPGGA,202949.224,4215.877,N,07143.352,W,1,12,1.0,0.0,M,0.0,M,,*73
$GPGSA,A,3,01,02,03,04,05,06,07,08,09,10,11,12,1.0,1.0,1.0*30
$GPRMC,202949.224,A,4215.877,N,07143.352,W,038.9,360.0,020324,000.0,W*67
$GPGGA,202950.224,4215.888,N,07143.352,W,1,12,1.0,0.0,M,0.0,M,,*7B
$GPGSA,A,3,01,02,03,04,05,06,07,08,09,10,11,12,1.0,1.0,1.0*30
$GPRMC,202950.224,A,4215.888,N,07143.352,W,038.9,360.0,020324,000.0,W*6F
$GPGGA,202951.224,4215.899,N,07143.352,W,1,12,1.0,0.0,M,0.0,M,,*7A
$GPGSA,A,3,01,02,03,04,05,06,07,08,09,10,11,12,1.0,1.0,1.0*30
$GPRMC,202951.224,A,4215.899,N,07143.352,W,038.9,360.0,020324,000.0,W*6E
$GPGGA,202952.224,4215.910,N,07143.352,W,1,12,1.0,0.0,M,0.0,M,,*79
$GPGSA,A,3,01,02,03,04,05,06,07,08,09,10,11,12,1.0,1.0,1.0*30
$GPRMC,202952.224,A,4215.910,N,07143.352,W,038.9,360.0,020324,000.0,W*6D
$GPGGA,202953.224,4215.920,N,07143.352,W,1,12,1.0,0.0,M,0.0,M,,*7B
$GPGSA,A,3,01,02,03,04,05,06,07,08,09,10,11,12,1.0,1.0,1.0*30
$GPRMC,202953.224,A,4215.920,N,07143.352,W,038.9,360.0,020324,000.0,W*6F
$GPGGA,202954.224,4215.931,N,07143.352,W,1,12,1.0,0.0,M,0.0,M,,*7C
$GPGSA,A,3,01,02,03,04,05,06,07,08,09,10,11,12,1.0,1.0,1.0*30
$GPRMC,202954.224,A,4215.931,N,07143.352,W,038.9,360.0,020324,000.0,W*68
$GPGGA,202955.224,4215.942,N,07143.352,W,1,12,1.0,0.0,M,0.0,M,,*79
$GPGSA,A,3,01,02,03,04,05,06,07,08,09,10,11,12,1.0,1.0,1.0*30
$GPRMC,202955.224,A,4215.942,N,07143.352,W,038.9,360.0,020324,000.0,W*6D
$GPGGA,202956.224,4215.953,N,07143.352,W,1,12,1.0,0.0,M,0.0,M,,*7A
$GPGSA,A,3,01,02,03,04,05,06,07,08,09,10,11,12,1.0,1.0,1.0*30
$GPRMC,202956.224,A,4215.953,N,07143.352,W,038.9,360.0,020324,000.0,W*6E
$GPGGA,202957.224,4215.964,N,07143.352,W,1,12,1.0,0.0,M,0.0,M,,*7F
$GPGSA,A,3,01,02,03,04,05,06,07,08,09,10,11,12,1.0,1.0,1.0*30
$GPRMC,202957.224,A,4215.964,N,07143.352,W,038.9,360.0,020324,000.0,W*6B
$GPGGA,202958.224,4215.974,N,07143.352,W,1,12,1.0,0.0,M,0.0,M,,*71
$GPGSA,A,3,01,02,03,04,05,06,07,08,09,10,11,12,1.0,1.0,1.0*30
$GPRMC,202958.224,A,4215.974,N,07143.352,W,038.9,360.0,020324,000.0,W*65
$GPGGA,202959.224,4215.985,N,07143.352,W,1,12,1.0,0.0,M,0.0,M,,*7E
$GPGSA,A,3,01,02,03,04,05,06,07,08,09,10,11,12,1.0,1.0,1.0*30
$GPRMC,202959.224,A,4215.985,N,07143.352,W,038.9,360.0,020324,000.0,W*6A
$GPGGA,203000.224,4215.996,N,07143.352,W,1,12,1.0,0.0,M,0.0,M,,*78
$GPGSA,A,3,01,02,03,04,05,06,07,08,09,10,11,12,1.0,1.0,1.0*30
$GPRMC,203000.224,A,4215.996,N,07143.352,W,038.9,360.0,020324,000.0,W*6C
$GPGGA,203001.224,4216.007,N,07143.352,W,1,12,1.0,0.0,M,0.0,M,,*7B
$GPGSA,A,3,01,02,03,04,05,06,07,08,09,10,11,12,1.0,1.0,1.0*30
$GPRMC,203001.224,A,4216.007,N,07143.352,W,038.9,360.0,020324,000.0,W*6F
$GPGGA,203002.224,4216.017,N,07143.352,W,1,12,1.0,0.0,M,0.0,M,,*79
$GPGSA,A,3,01,02,03,04,05,06,07,08,09,10,11,12,1.0,1.0,1.0*30
$GPRMC,203002.224,A,4216.017,N,07143.352,W,038.9,360.0,020324,000.0,W*6D
$GPGGA,203003.224,4216.028,N,07143.352,W,1,12,1.0,0.0,M,0.0,M,,*74
$GPGSA,A,3,01,02,03,04,05,06,07,08,09,10,11,12,1.0,1.0,1.0*30
$GPRMC,203003.224,A,4216.028,N,07143.352,W,038.9,360.0,020324,000.0,W*60
$GPGGA,203004.224,4216.039,N,07143.352,W,1,12,1.0,0.0,M,0.0,M,,*73
$GPGSA,A,3,01,02,03,04,05,06,07,08,09,10,11,12,1.0,1.0,1.0*30
$GPRMC,203004.224,A,4216.039,N,07143.352,W,038.9,360.0,020324,000.0,W*67
$GPGGA,203005.224,4216.050,N,07143.352,W,1,12,1.0,0.0,M,0.0,M,,*7D
$GPGSA,A,3,01,02,03,04,05,06,07,08,09,10,11,12,1.0,1.0,1.0*30
$GPRMC,203005.224,A,4216.050,N,07143.352,W,038.9,360.0,020324,000.0,W*69
$GPGGA,203006.224,4216.061,N,07143.352,W,1,12,1.0,0.0,M,0.0,M,,*7C
$GPGSA,A,3,01,02,03,04,05,06,07,08,09,10,11,12,1.0,1.0,1.0*30
$GPRMC,203006.224,A,4216.061,N,07143.352,W,038.9,360.0,020324,000.0,W*68
$GPGGA,203007.224,4216.071,N,07143.352,W,1,12,1.0,0.0,M,0.0,M,,*7C
$GPGSA,A,3,01,02,03,04,05,06,07,08,09,10,11,12,1.0,1.0,1.0*30
$GPRMC,203007.224,A,4216.071,N,07143.352,W,038.9,360.0,020324,000.0,W*68
$GPGGA,203008.224,4216.082,N,07143.352,W,1,12,1.0,0.0,M,0.0,M,,*7F
$GPGSA,A,3,01,02,03,04,05,06,07,08,09,10,11,12,1.0,1.0,1.0*30
$GPRMC,203008.224,A,4216.082,N,07143.352,W,038.9,360.0,020324,000.0,W*6B
$GPGGA,203009.224,4216.093,N,07143.352,W,1,12,1.0,0.0,M,0.0,M,,*7E
$GPGSA,A,3,01,02,03,04,05,06,07,08,09,10,11,12,1.0,1.0,1.0*30
$GPRMC,203009.224,A,4216.093,N,07143.352,W,038.9,360.0,020324,000.0,W*6A
$GPGGA,203010.224,4216.104,N,07143.352,W,1,12,1.0,0.0,M,0.0,M,,*79
$GPGSA,A,3,01,02,03,04,05,06,07,08,09,10,11,12,1.0,1.0,1.0*30
$GPRMC,203010.224,A,4216.104,N,07143.352,W,038.9,360.0,020324,000.0,W*6D
$GPGGA,203011.224,4216.115,N,07143.352,W,1,12,1.0,0.0,M,0.0,M,,*78
$GPGSA,A,3,01,02,03,04,05,06,07,08,09,10,11,12,1.0,1.0,1.0*30
$GPRMC,203011.224,A,4216.115,N,07143.352,W,038.9,360.0,020324,000.0,W*6C
$GPGGA,203012.224,4216.125,N,07143.352,W,1,12,1.0,0.0,M,0.0,M,,*78
$GPGSA,A,3,01,02,03,04,05,06,07,08,09,10,11,12,1.0,1.0,1.0*30
$GPRMC,203012.224,A,4216.125,N,07143.352,W,038.9,360.0,020324,000.0,W*6C
$GPGGA,203013.224,4216.136,N,07143.352,W,1,12,1.0,0.0,M,0.0,M,,*7B
$GPGSA,A,3,01,02,03,04,05,06,07,08,09,10,11,12,1.0,1.0,1.0*30
$GPRMC,203013.224,A,4216.136,N,07143.352,W,038.9,360.0,020324,000.0,W*6F
$GPGGA,203014.224,4216.147,N,07143.352,W,1,12,1.0,0.0,M,0.0,M,,*7A
$GPGSA,A,3,01,02,03,04,05,06,07,08,09,10,11,12,1.0,1.0,1.0*30
$GPRMC,203014.224,A,4216.147,N,07143.352,W,038.9,360.0,020324,000.0,W*6E
$GPGGA,203015.224,4216.158,N,07143.352,W,1,12,1.0,0.0,M,0.0,M,,*75
$GPGSA,A,3,01,02,03,04,05,06,07,08,09,10,11,12,1.0,1.0,1.0*30
$GPRMC,203015.224,A,4216.158,N,07143.352,W,038.9,360.0,020324,000.0,W*61
$GPGGA,203016.224,4216.169,N,07143.352,W,1,12,1.0,0.0,M,0.0,M,,*74
$GPGSA,A,3,01,02,03,04,05,06,07,08,09,10,11,12,1.0,1.0,1.0*30
$GPRMC,203016.224,A,4216.169,N,07143.352,W,038.9,360.0,020324,000.0,W*60
$GPGGA,203017.224,4216.179,N,07143.352,W,1,12,1.0,0.0,M,0.0,M,,*74
$GPGSA,A,3,01,02,03,04,05,06,07,08,09,10,11,12,1.0,1.0,1.0*30
$GPRMC,203017.224,A,4216.179,N,07143.352,W,038.9,360.0,020324,000.0,W*60
$GPGGA,203018.224,4216.190,N,07143.352,W,1,12,1.0,0.0,M,0.0,M,,*7C
$GPGSA,A,3,01,02,03,04,05,06,07,08,09,10,11,12,1.0,1.0,1.0*30
$GPRMC,203018.224,A,4216.190,N,07143.352,W,038.9,360.0,020324,000.0,W*68
$GPGGA,203019.224,4216.201,N,07143.352,W,1,12,1.0,0.0,M,0.0,M,,*76
$GPGSA,A,3,01,02,03,04,05,06,07,08,09,10,11,12,1.0,1.0,1.0*30
$GPRMC,203019.224,A,4216.201,N,07143.352,W,038.9,360.0,020324,000.0,W*62
$GPGGA,203020.224,4216.212,N,07143.352,W,1,12,1.0,0.0,M,0.0,M,,*7E
$GPGSA,A,3,01,02,03,04,05,06,07,08,09,10,11,12,1.0,1.0,1.0*30
$GPRMC,203020.224,A,4216.212,N,07143.352,W,038.9,360.0,020324,000.0,W*6A
$GPGGA,203021.224,4216.223,N,07143.352,W,1,12,1.0,0.0,M,0.0,M,,*7D
$GPGSA,A,3,01,02,03,04,05,06,07,08,09,10,11,12,1.0,1.0,1.0*30
$GPRMC,203021.224,A,4216.223,N,07143.352,W,038.9,360.0,020324,000.0,W*69
$GPGGA,203022.224,4216.233,N,07143.352,W,1,12,1.0,0.0,M,0.0,M,,*7F
$GPGSA,A,3,01,02,03,04,05,06,07,08,09,10,11,12,1.0,1.0,1.0*30
$GPRMC,203022.224,A,4216.233,N,07143.352,W,038.9,360.0,020324,000.0,W*6B
$GPGGA,203023.224,4216.244,N,07143.352,W,1,12,1.0,0.0,M,0.0,M,,*7E
$GPGSA,A,3,01,02,03,04,05,06,07,08,09,10,11,12,1.0,1.0,1.0*30
$GPRMC,203023.224,A,4216.244,N,07143.352,W,038.9,360.0,020324,000.0,W*6A
$GPGGA,203024.224,4216.255,N,07143.352,W,1,12,1.0,0.0,M,0.0,M,,*79
$GPGSA,A,3,01,02,03,04,05,06,07,08,09,10,11,12,1.0,1.0,1.0*30
$GPRMC,203024.224,A,4216.255,N,07143.352,W,038.9,360.0,020324,000.0,W*6D
$GPGGA,203025.224,4216.266,N,07143.352,W,1,12,1.0,0.0,M,0.0,M,,*78
$GPGSA,A,3,01,02,03,04,05,06,07,08,09,10,11,12,1.0,1.0,1.0*30
$GPRMC,203025.224,A,4216.266,N,07143.352,W,038.9,360.0,020324,000.0,W*6C
$GPGGA,203026.224,4216.276,N,07143.352,W,1,12,1.0,0.0,M,0.0,M,,*7A
$GPGSA,A,3,01,02,03,04,05,06,07,08,09,10,11,12,1.0,1.0,1.0*30
$GPRMC,203026.224,A,4216.276,N,07143.352,W,038.9,360.0,020324,000.0,W*6E
$GPGGA,203027.224,4216.287,N,07143.352,W,1,12,1.0,0.0,M,0.0,M,,*75
$GPGSA,A,3,01,02,03,04,05,06,07,08,09,10,11,12,1.0,1.0,1.0*30
$GPRMC,203027.224,A,4216.287,N,07143.352,W,038.9,360.0,020324,000.0,W*61
$GPGGA,203028.224,4216.298,N,07143.352,W,1,12,1.0,0.0,M,0.0,M,,*74
$GPGSA,A,3,01,02,03,04,05,06,07,08,09,10,11,12,1.0,1.0,1.0*30
$GPRMC,203028.224,A,4216.298,N,07143.352,W,038.9,360.0,020324,000.0,W*60
$GPGGA,203029.224,4216.309,N,07143.352,W,1,12,1.0,0.0,M,0.0,M,,*7C
$GPGSA,A,3,01,02,03,04,05,06,07,08,09,10,11,12,1.0,1.0,1.0*30
$GPRMC,203029.224,A,4216.309,N,07143.352,W,038.9,360.0,020324,000.0,W*68
$GPGGA,203030.224,4216.320,N,07143.352,W,1,12,1.0,0.0,M,0.0,M,,*7F
$GPGSA,A,3,01,02,03,04,05,06,07,08,09,10,11,12,1.0,1.0,1.0*30
$GPRMC,203030.224,A,4216.320,N,07143.352,W,038.9,360.0,020324,000.0,W*6B
$GPGGA,203031.224,4216.330,N,07143.352,W,1,12,1.0,0.0,M,0.0,M,,*7F
$GPGSA,A,3,01,02,03,04,05,06,07,08,09,10,11,12,1.0,1.0,1.0*30
$GPRMC,203031.224,A,4216.330,N,07143.352,W,038.9,360.0,020324,000.0,W*6B
$GPGGA,203032.224,4216.341,N,07143.352,W,1,12,1.0,0.0,M,0.0,M,,*7A
$GPGSA,A,3,01,02,03,04,05,06,07,08,09,10,11,12,1.0,1.0,1.0*30
$GPRMC,203032.224,A,4216.341,N,07143.352,W,038.9,360.0,020324,000.0,W*6E
$GPGGA,203033.224,4216.352,N,07143.352,W,1,12,1.0,0.0,M,0.0,M,,*79
$GPGSA,A,3,01,02,03,04,05,06,07,08,09,10,11,12,1.0,1.0,1.0*30
$GPRMC,203033.224,A,4216.352,N,07143.352,W,038.9,360.0,020324,000.0,W*6D
$GPGGA,203034.224,4216.363,N,07143.352,W,1,12,1.0,0.0,M,0.0,M,,*7C
$GPGSA,A,3,01,02,03,04,05,06,07,08,09,10,11,12,1.0,1.0,1.0*30
$GPRMC,203034.224,A,4216.363,N,07143.352,W,038.9,360.0,020324,000.0,W*68
$GPGGA,203035.224,4216.374,N,07143.352,W,1,12,1.0,0.0,M,0.0,M,,*7B
$GPGSA,A,3,01,02,03,04,05,06,07,08,09,10,11,12,1.0,1.0,1.0*30
$GPRMC,203035.224,A,4216.374,N,07143.352,W,038.9,360.0,020324,000.0,W*6F
$GPGGA,203036.224,4216.384,N,07143.352,W,1,12,1.0,0.0,M,0.0,M,,*77
$GPGSA,A,3,01,02,03,04,05,06,07,08,09,10,11,12,1.0,1.0,1.0*30
$GPRMC,203036.224,A,4216.384,N,07143.352,W,038.9,360.0,020324,000.0,W*63
$GPGGA,203037.224,4216.395,N,07143.352,W,1,12,1.0,0.0,M,0.0,M,,*76
$GPGSA,A,3,01,02,03,04,05,06,07,08,09,10,11,12,1.0,1.0,1.0*30
$GPRMC,203037.224,A,4216.395,N,07143.352,W,038.9,360.0,020324,000.0,W*62
$GPGGA,203038.224,4216.406,N,07143.352,W,1,12,1.0,0.0,M,0.0,M,,*74
$GPGSA,A,3,01,02,03,04,05,06,07,08,09,10,11,12,1.0,1.0,1.0*30
$GPRMC,203038.224,A,4216.406,N,07143.352,W,038.9,360.0,020324,000.0,W*60
$GPGGA,203039.224,4216.417,N,07143.352,W,1,12,1.0,0.0,M,0.0,M,,*75
$GPGSA,A,3,01,02,03,04,05,06,07,08,09,10,11,12,1.0,1.0,1.0*30
$GPRMC,203039.224,A,4216.417,N,07143.352,W,038.9,360.0,020324,000.0,W*61
$GPGGA,203040.224,4216.428,N,07143.352,W,1,12,1.0,0.0,M,0.0,M,,*77
$GPGSA,A,3,01,02,03,04,05,06,07,08,09,10,11,12,1.0,1.0,1.0*30
$GPRMC,203040.224,A,4216.428,N,07143.352,W,038.9,360.0,020324,000.0,W*63
$GPGGA,203041.224,4216.438,N,07143.352,W,1,12,1.0,0.0,M,0.0,M,,*77
$GPGSA,A,3,01,02,03,04,05,06,07,08,09,10,11,12,1.0,1.0,1.0*30
$GPRMC,203041.224,A,4216.438,N,07143.352,W,038.9,360.0,020324,000.0,W*63
$GPGGA,203042.224,4216.449,N,07143.352,W,1,12,1.0,0.0,M,0.0,M,,*72
$GPGSA,A,3,01,02,03,04,05,06,07,08,09,10,11,12,1.0,1.0,1.0*30
$GPRMC,203042.224,A,4216.449,N,07143.352,W,038.9,360.0,020324,000.0,W*66
$GPGGA,203043.224,4216.460,N,07143.352,W,1,12,1.0,0.0,M,0.0,M,,*78
$GPGSA,A,3,01,02,03,04,05,06,07,08,09,10,11,12,1.0,1.0,1.0*30
$GPRMC,203043.224,A,4216.460,N,07143.352,W,038.9,360.0,020324,000.0,W*6C
$GPGGA,203044.224,4216.471,N,07143.352,W,1,12,1.0,0.0,M,0.0,M,,*7F
$GPGSA,A,3,01,02,03,04,05,06,07,08,09,10,11,12,1.0,1.0,1.0*30
$GPRMC,203044.224,A,4216.471,N,07143.352,W,038.9,360.0,020324,000.0,W*6B
$GPGGA,203045.224,4216.482,N,07143.352,W,1,12,1.0,0.0,M,0.0,M,,*72
$GPGSA,A,3,01,02,03,04,05,06,07,08,09,10,11,12,1.0,1.0,1.0*30
$GPRMC,203045.224,A,4216.482,N,07143.352,W,038.9,360.0,020324,000.0,W*66
$GPGGA,203046.224,4216.492,N,07143.352,W,1,12,1.0,0.0,M,0.0,M,,*70
$GPGSA,A,3,01,02,03,04,05,06,07,08,09,10,11,12,1.0,1.0,1.0*30
$GPRMC,203046.224,A,4216.492,N,07143.352,W,038.9,360.0,020324,000.0,W*64
$GPGGA,203047.224,4216.503,N,07143.352,W,1,12,1.0,0.0,M,0.0,M,,*78
$GPGSA,A,3,01,02,03,04,05,06,07,08,09,10,11,12,1.0,1.0,1.0*30
$GPRMC,203047.224,A,4216.503,N,07143.352,W,038.9,360.0,020324,000.0,W*6C
$GPGGA,203048.224,4216.514,N,07143.352,W,1,12,1.0,0.0,M,0.0,M,,*71
$GPGSA,A,3,01,02,03,04,05,06,07,08,09,10,11,12,1.0,1.0,1.0*30
$GPRMC,203048.224,A,4216.514,N,07143.352,W,038.9,360.0,020324,000.0,W*65
$GPGGA,203049.224,4216.525,N,07143.352,W,1,12,1.0,0.0,M,0.0,M,,*72
$GPGSA,A,3,01,02,03,04,05,06,07,08,09,10,11,12,1.0,1.0,1.0*30
$GPRMC,203049.224,A,4216.525,N,07143.352,W,038.9,360.0,020324,000.0,W*66
$GPGGA,203050.224,4216.535,N,07143.352,W,1,12,1.0,0.0,M,0.0,M,,*7B
$GPGSA,A,3,01,02,03,04,05,06,07,08,09,10,11,12,1.0,1.0,1.0*30
$GPRMC,203050.224,A,4216.535,N,07143.352,W,038.9,360.0,020324,000.0,W*6F
$GPGGA,203051.224,4216.546,N,07143.352,W,1,12,1.0,0.0,M,0.0,M,,*7E
$GPGSA,A,3,01,02,03,04,05,06,07,08,09,10,11,12,1.0,1.0,1.0*30
$GPRMC,203051.224,A,4216.546,N,07143.352,W,038.9,360.0,020324,000.0,W*6A
$GPGGA,203052.224,4216.557,N,07143.352,W,1,12,1.0,0.0,M,0.0,M,,*7D
$GPGSA,A,3,01,02,03,04,05,06,07,08,09,10,11,12,1.0,1.0,1.0*30
$GPRMC,203052.224,A,4216.557,N,07143.352,W,038.9,360.0,020324,000.0,W*69
$GPGGA,203053.224,4216.568,N,07143.352,W,1,12,1.0,0.0,M,0.0,M,,*70
$GPGSA,A,3,01,02,03,04,05,06,07,08,09,10,11,12,1.0,1.0,1.0*30
$GPRMC,203053.224,A,4216.568,N,07143.352,W,038.9,360.0,020324,000.0,W*64
$GPGGA,203054.224,4216.579,N,07143.352,W,1,12,1.0,0.0,M,0.0,M,,*77
$GPGSA,A,3,01,02,03,04,05,06,07,08,09,10,11,12,1.0,1.0,1.0*30
$GPRMC,203054.224,A,4216.579,N,07143.352,W,038.9,360.0,020324,000.0,W*63
$GPGGA,203055.224,4216.589,N,07143.352,W,1,12,1.0,0.0,M,0.0,M,,*79
$GPGSA,A,3,01,02,03,04,05,06,07,08,09,10,11,12,1.0,1.0,1.0*30
$GPRMC,203055.224,A,4216.589,N,07143.352,W,038.9,360.0,020324,000.0,W*6D
$GPGGA,203056.224,4216.600,N,07143.352,W,1,12,1.0,0.0,M,0.0,M,,*78
$GPGSA,A,3,01,02,03,04,05,06,07,08,09,10,11,12,1.0,1.0,1.0*30
$GPRMC,203056.224,A,4216.600,N,07143.352,W,038.9,360.0,020324,000.0,W*6C
$GPGGA,203057.224,4216.611,N,07143.352,W,1,12,1.0,0.0,M,0.0,M,,*79
$GPGSA,A,3,01,02,03,04,05,06,07,08,09,10,11,12,1.0,1.0,1.0*30
$GPRMC,203057.224,A,4216.611,N,07143.352,W,038.9,360.0,020324,000.0,W*6D
$GPGGA,203058.224,4216.622,N,07143.352,W,1,12,1.0,0.0,M,0.0,M,,*76
$GPGSA,A,3,01,02,03,04,05,06,07,08,09,10,11,12,1.0,1.0,1.0*30
$GPRMC,203058.224,A,4216.622,N,07143.352,W,038.9,360.0,020324,000.0,W*62
$GPGGA,203059.224,4216.633,N,07143.352,W,1,12,1.0,0.0,M,0.0,M,,*77
$GPGSA,A,3,01,02,03,04,05,06,07,08,09,10,11,12,1.0,1.0,1.0*30
$GPRMC,203059.224,A,4216.633,N,07143.352,W,038.9,360.0,020324,000.0,W*63
$GPGGA,203100.224,4216.643,N,07143.352,W,1,12,1.0,0.0,M,0.0,M,,*7D
$GPGSA,A,3,01,02,03,04,05,06,07,08,09,10,11,12,1.0,1.0,1.0*30
$GPRMC,203100.224,A,4216.643,N,07143.352,W,038.9,360.0,020324,000.0,W*69
$GPGGA,203101.224,4216.654,N,07143.352,W,1,12,1.0,0.0,M,0.0,M,,*7A
$GPGSA,A,3,01,02,03,04,05,06,07,08,09,10,11,12,1.0,1.0,1.0*30
$GPRMC,203101.224,A,4216.654,N,07143.352,W,038.9,360.0,020324,000.0,W*6E
$GPGGA,203102.224,4216.665,N,07143.352,W,1,12,1.0,0.0,M,0.0,M,,*7B
$GPGSA,A,3,01,02,03,04,05,06,07,08,09,10,11,12,1.0,1.0,1.0*30
$GPRMC,203102.224,A,4216.665,N,07143.352,W,038.9,360.0,020324,000.0,W*6F
$GPGGA,203103.224,4216.676,N,07143.352,W,1,12,1.0,0.0,M,0.0,M,,*78
$GPGSA,A,3,01,02,03,04,05,06,07,08,09,10,11,12,1.0,1.0,1.0*30
$GPRMC,203103.224,A,4216.676,N,07143.352,W,038.9,360.0,020324,000.0,W*6C
$GPGGA,203104.224,4216.687,N,07143.352,W,1,12,1.0,0.0,M,0.0,M,,*71
$GPGSA,A,3,01,02,03,04,05,06,07,08,09,10,11,12,1.0,1.0,1.0*30
$GPRMC,203104.224,A,4216.687,N,07143.352,W,038.9,360.0,020324,000.0,W*65
$GPGGA,203105.224,4216.697,N,07143.352,W,1,12,1.0,0.0,M,0.0,M,,*71
$GPGSA,A,3,01,02,03,04,05,06,07,08,09,10,11,12,1.0,1.0,1.0*30
$GPRMC,203105.224,A,4216.697,N,07143.352,W,038.9,360.0,020324,000.0,W*65
$GPGGA,203106.224,4216.708,N,07143.352,W,1,12,1.0,0.0,M,0.0,M,,*75
$GPGSA,A,3,01,02,03,04,05,06,07,08,09,10,11,12,1.0,1.0,1.0*30
$GPRMC,203106.224,A,4216.708,N,07143.352,W,038.9,360.0,020324,000.0,W*61
$GPGGA,203107.224,4216.719,N,07143.352,W,1,12,1.0,0.0,M,0.0,M,,*74
$GPGSA,A,3,01,02,03,04,05,06,07,08,09,10,11,12,1.0,1.0,1.0*30
$GPRMC,203107.224,A,4216.719,N,07143.352,W,038.9,360.0,020324,000.0,W*60
$GPGGA,203108.224,4216.730,N,07143.352,W,1,12,1.0,0.0,M,0.0,M,,*70
$GPGSA,A,3,01,02,03,04,05,06,07,08,09,10,11,12,1.0,1.0,1.0*30
$GPRMC,203108.224,A,4216.730,N,07143.352,W,038.9,360.0,020324,000.0,W*64
$GPGGA,203109.224,4216.741,N,07143.352,W,1,12,1.0,0.0,M,0.0,M,,*77
$GPGSA,A,3,01,02,03,04,05,06,07,08,09,10,11,12,1.0,1.0,1.0*30
$GPRMC,203109.224,A,4216.741,N,07143.352,W,038.9,360.0,020324,000.0,W*63
$GPGGA,203110.224,4216.751,N,07143.352,W,1,12,1.0,0.0,M,0.0,M,,*7E
$GPGSA,A,3,01,02,03,04,05,06,07,08,09,10,11,12,1.0,1.0,1.0*30
$GPRMC,203110.224,A,4216.751,N,07143.352,W,038.9,360.0,020324,000.0,W*6A
$GPGGA,203111.224,4216.762,N,07143.352,W,1,12,1.0,0.0,M,0.0,M,,*7F
$GPGSA,A,3,01,02,03,04,05,06,07,08,09,10,11,12,1.0,1.0,1.0*30
$GPRMC,203111.224,A,4216.762,N,07143.352,W,038.9,360.0,020324,000.0,W*6B
$GPGGA,203112.224,4216.773,N,07143.352,W,1,12,1.0,0.0,M,0.0,M,,*7C
$GPGSA,A,3,01,02,03,04,05,06,07,08,09,10,11,12,1.0,1.0,1.0*30
$GPRMC,203112.224,A,4216.773,N,07143.352,W,038.9,360.0,020324,000.0,W*68
$GPGGA,203113.224,4216.784,N,07143.352,W,1,12,1.0,0.0,M,0.0,M,,*75
$GPGSA,A,3,01,02,03,04,05,06,07,08,09,10,11,12,1.0,1.0,1.0*30
$GPRMC,203113.224,A,4216.784,N,07143.352,W,038.9,360.0,020324,000.0,W*61
$GPGGA,203114.224,4216.794,N,07143.352,W,1,12,1.0,0.0,M,0.0,M,,*73
$GPGSA,A,3,01,02,03,04,05,06,07,08,09,10,11,12,1.0,1.0,1.0*30
$GPRMC,203114.224,A,4216.794,N,07143.352,W,038.9,360.0,020324,000.0,W*67
$GPGGA,203115.224,4216.805,N,07143.353,W,1,12,1.0,0.0,M,0.0,M,,*74
$GPGSA,A,3,01,02,03,04,05,06,07,08,09,10,11,12,1.0,1.0,1.0*30
$GPRMC,203115.224,A,4216.805,N,07143.353,W,038.9,360.0,020324,000.0,W*60
$GPGGA,203116.224,4216.816,N,07143.353,W,1,12,1.0,0.0,M,0.0,M,,*75
$GPGSA,A,3,01,02,03,04,05,06,07,08,09,10,11,12,1.0,1.0,1.0*30
$GPRMC,203116.224,A,4216.816,N,07143.353,W,038.9,360.0,020324,000.0,W*61
$GPGGA,203117.224,4216.827,N,07143.353,W,1,12,1.0,0.0,M,0.0,M,,*76
$GPGSA,A,3,01,02,03,04,05,06,07,08,09,10,11,12,1.0,1.0,1.0*30
$GPRMC,203117.224,A,4216.827,N,07143.353,W,038.9,360.0,020324,000.0,W*62
$GPGGA,203118.224,4216.838,N,07143.353,W,1,12,1.0,0.0,M,0.0,M,,*77
$GPGSA,A,3,01,02,03,04,05,06,07,08,09,10,11,12,1.0,1.0,1.0*30
$GPRMC,203118.224,A,4216.838,N,07143.353,W,038.9,360.0,020324,000.0,W*63
$GPGGA,203119.224,4216.848,N,07143.353,W,1,12,1.0,0.0,M,0.0,M,,*71
$GPGSA,A,3,01,02,03,04,05,06,07,08,09,10,11,12,1.0,1.0,1.0*30
$GPRMC,203119.224,A,4216.848,N,07143.353,W,038.9,360.0,020324,000.0,W*65
$GPGGA,203120.224,4216.859,N,07143.353,W,1,12,1.0,0.0,M,0.0,M,,*7B
$GPGSA,A,3,01,02,03,04,05,06,07,08,09,10,11,12,1.0,1.0,1.0*30
$GPRMC,203120.224,A,4216.859,N,07143.353,W,038.9,360.0,020324,000.0,W*6F
$GPGGA,203121.224,4216.870,N,07143.353,W,1,12,1.0,0.0,M,0.0,M,,*71
$GPGSA,A,3,01,02,03,04,05,06,07,08,09,10,11,12,1.0,1.0,1.0*30
$GPRMC,203121.224,A,4216.870,N,07143.353,W,038.9,360.0,020324,000.0,W*65
$GPGGA,203122.224,4216.881,N,07143.353,W,1,12,1.0,0.0,M,0.0,M,,*7C
$GPGSA,A,3,01,02,03,04,05,06,07,08,09,10,11,12,1.0,1.0,1.0*30
$GPRMC,203122.224,A,4216.881,N,07143.353,W,038.9,360.0,020324,000.0,W*68
$GPGGA,203123.224,4216.892,N,07143.353,W,1,12,1.0,0.0,M,0.0,M,,*7F
$GPGSA,A,3,01,02,03,04,05,06,07,08,09,10,11,12,1.0,1.0,1.0*30
$GPRMC,203123.224,A,4216.892,N,07143.353,W,038.9,360.0,020324,000.0,W*6B
$GPGGA,203124.224,4216.902,N,07143.353,W,1,12,1.0,0.0,M,0.0,M,,*70
$GPGSA,A,3,01,02,03,04,05,06,07,08,09,10,11,12,1.0,1.0,1.0*30
$GPRMC,203124.224,A,4216.902,N,07143.353,W,038.9,360.0,020324,000.0,W*64
$GPGGA,203125.224,4216.913,N,07143.353,W,1,12,1.0,0.0,M,0.0,M,,*71
$GPGSA,A,3,01,02,03,04,05,06,07,08,09,10,11,12,1.0,1.0,1.0*30
$GPRMC,203125.224,A,4216.913,N,07143.353,W,038.9,360.0,020324,000.0,W*65
$GPGGA,203126.224,4216.924,N,07143.353,W,1,12,1.0,0.0,M,0.0,M,,*76
$GPGSA,A,3,01,02,03,04,05,06,07,08,09,10,11,12,1.0,1.0,1.0*30
$GPRMC,203126.224,A,4216.924,N,07143.353,W,038.9,360.0,020324,000.0,W*62
$GPGGA,203127.224,4216.935,N,07143.353,W,1,12,1.0,0.0,M,0.0,M,,*77
$GPGSA,A,3,01,02,03,04,05,06,07,08,09,10,11,12,1.0,1.0,1.0*30
$GPRMC,203127.224,A,4216.935,N,07143.353,W,038.9,360.0,020324,000.0,W*63
$GPGGA,203128.224,4216.946,N,07143.353,W,1,12,1.0,0.0,M,0.0,M,,*7C
$GPGSA,A,3,01,02,03,04,05,06,07,08,09,10,11,12,1.0,1.0,1.0*30
$GPRMC,203128.224,A,4216.946,N,07143.353,W,038.9,360.0,020324,000.0,W*68
$GPGGA,203129.224,4216.956,N,07143.353,W,1,12,1.0,0.0,M,0.0,M,,*7C
$GPGSA,A,3,01,02,03,04,05,06,07,08,09,10,11,12,1.0,1.0,1.0*30
$GPRMC,203129.224,A,4216.956,N,07143.353,W,038.9,360.0,020324,000.0,W*68
$GPGGA,203130.224,4216.967,N,07143.353,W,1,12,1.0,0.0,M,0.0,M,,*76
$GPGSA,A,3,01,02,03,04,05,06,07,08,09,10,11,12,1.0,1.0,1.0*30
$GPRMC,203130.224,A,4216.967,N,07143.353,W,038.9,360.0,020324,000.0,W*62
$GPGGA,203131.224,4216.978,N,07143.353,W,1,12,1.0,0.0,M,0.0,M,,*79
$GPGSA,A,3,01,02,03,04,05,06,07,08,09,10,11,12,1.0,1.0,1.0*30
$GPRMC,203131.224,A,4216.978,N,07143.353,W,038.9,360.0,020324,000.0,W*6D
$GPGGA,203132.224,4216.989,N,07143.353,W,1,12,1.0,0.0,M,0.0,M,,*74
$GPGSA,A,3,01,02,03,04,05,06,07,08,09,10,11,12,1.0,1.0,1.0*30
$GPRMC,203132.224,A,4216.989,N,07143.353,W,038.9,360.0,020324,000.0,W*60
$GPGGA,203133.224,4217.000,N,07143.353,W,1,12,1.0,0.0,M,0.0,M,,*7C
$GPGSA,A,3,01,02,03,04,05,06,07,08,09,10,11,12,1.0,1.0,1.0*30
$GPRMC,203133.224,A,4217.000,N,07143.353,W,038.9,360.0,020324,000.0,W*68
$GPGGA,203134.224,4217.010,N,07143.353,W,1,12,1.0,0.0,M,0.0,M,,*7A
$GPGSA,A,3,01,02,03,04,05,06,07,08,09,10,11,12,1.0,1.0,1.0*30
$GPRMC,203134.224,A,4217.010,N,07143.353,W,038.9,360.0,020324,000.0,W*6E
$GPGGA,203135.224,4217.021,N,07143.353,W,1,12,1.0,0.0,M,0.0,M,,*79
$GPGSA,A,3,01,02,03,04,05,06,07,08,09,10,11,12,1.0,1.0,1.0*30
$GPRMC,203135.224,A,4217.021,N,07143.353,W,038.9,360.0,020324,000.0,W*6D
$GPGGA,203136.224,4217.032,N,07143.353,W,1,12,1.0,0.0,M,0.0,M,,*78
$GPGSA,A,3,01,02,03,04,05,06,07,08,09,10,11,12,1.0,1.0,1.0*30
$GPRMC,203136.224,A,4217.032,N,07143.353,W,038.9,360.0,020324,000.0,W*6C
$GPGGA,203137.224,4217.043,N,07143.353,W,1,12,1.0,0.0,M,0.0,M,,*7F
$GPGSA,A,3,01,02,03,04,05,06,07,08,09,10,11,12,1.0,1.0,1.0*30
$GPRMC,203137.224,A,4217.043,N,07143.353,W,038.9,360.0,020324,000.0,W*6B
$GPGGA,203138.224,4217.053,N,07143.353,W,1,12,1.0,0.0,M,0.0,M,,*71
$GPGSA,A,3,01,02,03,04,05,06,07,08,09,10,11,12,1.0,1.0,1.0*30
$GPRMC,203138.224,A,4217.053,N,07143.353,W,038.9,360.0,020324,000.0,W*65
$GPGGA,203139.224,4217.064,N,07143.353,W,1,12,1.0,0.0,M,0.0,M,,*74
$GPGSA,A,3,01,02,03,04,05,06,07,08,09,10,11,12,1.0,1.0,1.0*30
$GPRMC,203139.224,A,4217.064,N,07143.353,W,038.9,360.0,020324,000.0,W*60
$GPGGA,203140.224,4217.075,N,07143.353,W,1,12,1.0,0.0,M,0.0,M,,*7A
$GPGSA,A,3,01,02,03,04,05,06,07,08,09,10,11,12,1.0,1.0,1.0*30
$GPRMC,203140.224,A,4217.075,N,07143.353,W,038.9,360.0,020324,000.0,W*6E
$GPGGA,203141.224,4217.086,N,07143.353,W,1,12,1.0,0.0,M,0.0,M,,*77
$GPGSA,A,3,01,02,03,04,05,06,07,08,09,10,11,12,1.0,1.0,1.0*30
$GPRMC,203141.224,A,4217.086,N,07143.353,W,038.9,360.0,020324,000.0,W*63
$GPGGA,203142.224,4217.097,N,07143.353,W,1,12,1.0,0.0,M,0.0,M,,*74
$GPGSA,A,3,01,02,03,04,05,06,07,08,09,10,11,12,1.0,1.0,1.0*30
$GPRMC,203142.224,A,4217.097,N,07143.353,W,038.9,360.0,020324,000.0,W*60
$GPGGA,203143.224,4217.107,N,07143.353,W,1,12,1.0,0.0,M,0.0,M,,*7D
$GPGSA,A,3,01,02,03,04,05,06,07,08,09,10,11,12,1.0,1.0,1.0*30
$GPRMC,203143.224,A,4217.107,N,07143.353,W,038.9,360.0,020324,000.0,W*69
$GPGGA,203144.224,4217.118,N,07143.353,W,1,12,1.0,0.0,M,0.0,M,,*74
$GPGSA,A,3,01,02,03,04,05,06,07,08,09,10,11,12,1.0,1.0,1.0*30
$GPRMC,203144.224,A,4217.118,N,07143.353,W,038.9,360.0,020324,000.0,W*60
$GPGGA,203145.224,4217.129,N,07143.353,W,1,12,1.0,0.0,M,0.0,M,,*77
$GPGSA,A,3,01,02,03,04,05,06,07,08,09,10,11,12,1.0,1.0,1.0*30
$GPRMC,203145.224,A,4217.129,N,07143.353,W,038.9,360.0,020324,000.0,W*63
$GPGGA,203146.224,4217.140,N,07143.353,W,1,12,1.0,0.0,M,0.0,M,,*7B
$GPGSA,A,3,01,02,03,04,05,06,07,08,09,10,11,12,1.0,1.0,1.0*30
$GPRMC,203146.224,A,4217.140,N,07143.353,W,038.9,360.0,020324,000.0,W*6F
$GPGGA,203147.224,4217.151,N,07143.353,W,1,12,1.0,0.0,M,0.0,M,,*7A
$GPGSA,A,3,01,02,03,04,05,06,07,08,09,10,11,12,1.0,1.0,1.0*30
$GPRMC,203147.224,A,4217.151,N,07143.353,W,038.9,360.0,020324,000.0,W*6E
$GPGGA,203148.224,4217.161,N,07143.353,W,1,12,1.0,0.0,M,0.0,M,,*76
$GPGSA,A,3,01,02,03,04,05,06,07,08,09,10,11,12,1.0,1.0,1.0*30
$GPRMC,203148.224,A,4217.161,N,07143.353,W,038.9,360.0,020324,000.0,W*62
$GPGGA,203149.224,4217.172,N,07143.353,W,1,12,1.0,0.0,M,0.0,M,,*75
$GPGSA,A,3,01,02,03,04,05,06,07,08,09,10,11,12,1.0,1.0,1.0*30
$GPRMC,203149.224,A,4217.172,N,07143.353,W,038.9,360.0,020324,000.0,W*61
$GPGGA,203150.224,4217.183,N,07143.353,W,1,12,1.0,0.0,M,0.0,M,,*73
$GPGSA,A,3,01,02,03,04,05,06,07,08,09,10,11,12,1.0,1.0,1.0*30
$GPRMC,203150.224,A,4217.183,N,07143.353,W,038.9,360.0,020324,000.0,W*67
$GPGGA,203151.224,4217.194,N,07143.353,W,1,12,1.0,0.0,M,0.0,M,,*74
$GPGSA,A,3,01,02,03,04,05,06,07,08,09,10,11,12,1.0,1.0,1.0*30
$GPRMC,203151.224,A,4217.194,N,07143.353,W,038.9,360.0,020324,000.0,W*60
$GPGGA,203152.224,4217.205,N,07143.353,W,1,12,1.0,0.0,M,0.0,M,,*7C
$GPGSA,A,3,01,02,03,04,05,06,07,08,09,10,11,12,1.0,1.0,1.0*30
$GPRMC,203152.224,A,4217.205,N,07143.353,W,038.9,360.0,020324,000.0,W*68
$GPGGA,203153.224,4217.215,N,07143.353,W,1,12,1.0,0.0,M,0.0,M,,*7C
$GPGSA,A,3,01,02,03,04,05,06,07,08,09,10,11,12,1.0,1.0,1.0*30
$GPRMC,203153.224,A,4217.215,N,07143.353,W,038.9,360.0,020324,000.0,W*68
$GPGGA,203154.224,4217.226,N,07143.353,W,1,12,1.0,0.0,M,0.0,M,,*7B
$GPGSA,A,3,01,02,03,04,05,06,07,08,09,10,11,12,1.0,1.0,1.0*30
$GPRMC,203154.224,A,4217.226,N,07143.353,W,038.9,360.0,020324,000.0,W*6F
$GPGGA,203155.224,4217.237,N,07143.353,W,1,12,1.0,0.0,M,0.0,M,,*7A
$GPGSA,A,3,01,02,03,04,05,06,07,08,09,10,11,12,1.0,1.0,1.0*30
$GPRMC,203155.224,A,4217.237,N,07143.353,W,038.9,360.0,020324,000.0,W*6E
$GPGGA,203156.224,4217.248,N,07143.353,W,1,12,1.0,0.0,M,0.0,M,,*71
$GPGSA,A,3,01,02,03,04,05,06,07,08,09,10,11,12,1.0,1.0,1.0*30
$GPRMC,203156.224,A,4217.248,N,07143.353,W,038.9,360.0,020324,000.0,W*65
$GPGGA,203157.224,4217.259,N,07143.353,W,1,12,1.0,0.0,M,0.0,M,,*70
$GPGSA,A,3,01,02,03,04,05,06,07,08,09,10,11,12,1.0,1.0,1.0*30
$GPRMC,203157.224,A,4217.259,N,07143.353,W,038.9,360.0,020324,000.0,W*64
$GPGGA,203158.224,4217.269,N,07143.353,W,1,12,1.0,0.0,M,0.0,M,,*7C
$GPGSA,A,3,01,02,03,04,05,06,07,08,09,10,11,12,1.0,1.0,1.0*30
$GPRMC,203158.224,A,4217.269,N,07143.353,W,038.9,360.0,020324,000.0,W*68
$GPGGA,203159.224,4217.280,N,07143.353,W,1,12,1.0,0.0,M,0.0,M,,*7A
$GPGSA,A,3,01,02,03,04,05,06,07,08,09,10,11,12,1.0,1.0,1.0*30
$GPRMC,203159.224,A,4217.280,N,07143.353,W,038.9,360.0,020324,000.0,W*6E
$GPGGA,203200.224,4217.291,N,07143.353,W,1,12,1.0,0.0,M,0.0,M,,*75
$GPGSA,A,3,01,02,03,04,05,06,07,08,09,10,11,12,1.0,1.0,1.0*30
$GPRMC,203200.224,A,4217.291,N,07143.353,W,038.9,360.0,020324,000.0,W*61
$GPGGA,203201.224,4217.302,N,07143.353,W,1,12,1.0,0.0,M,0.0,M,,*7F
$GPGSA,A,3,01,02,03,04,05,06,07,08,09,10,11,12,1.0,1.0,1.0*30
$GPRMC,203201.224,A,4217.302,N,07143.353,W,038.9,360.0,020324,000.0,W*6B
$GPGGA,203202.224,4217.312,N,07143.353,W,1,12,1.0,0.0,M,0.0,M,,*7D
$GPGSA,A,3,01,02,03,04,05,06,07,08,09,10,11,12,1.0,1.0,1.0*30
$GPRMC,203202.224,A,4217.312,N,07143.353,W,038.9,360.0,020324,000.0,W*69
$GPGGA,203203.224,4217.323,N,07143.353,W,1,12,1.0,0.0,M,0.0,M,,*7E
$GPGSA,A,3,01,02,03,04,05,06,07,08,09,10,11,12,1.0,1.0,1.0*30
$GPRMC,203203.224,A,4217.323,N,07143.353,W,038.9,360.0,020324,000.0,W*6A
$GPGGA,203204.224,4217.334,N,07143.353,W,1,12,1.0,0.0,M,0.0,M,,*7F
$GPGSA,A,3,01,02,03,04,05,06,07,08,09,10,11,12,1.0,1.0,1.0*30
$GPRMC,203204.224,A,4217.334,N,07143.353,W,038.9,360.0,020324,000.0,W*6B
$GPGGA,203205.224,4217.345,N,07143.353,W,1,12,1.0,0.0,M,0.0,M,,*78
$GPGSA,A,3,01,02,03,04,05,06,07,08,09,10,11,12,1.0,1.0,1.0*30
$GPRMC,203205.224,A,4217.345,N,07143.353,W,038.9,360.0,020324,000.0,W*6C
$GPGGA,203206.224,4217.356,N,07143.353,W,1,12,1.0,0.0,M,0.0,M,,*79
$GPGSA,A,3,01,02,03,04,05,06,07,08,09,10,11,12,1.0,1.0,1.0*30
$GPRMC,203206.224,A,4217.356,N,07143.353,W,038.9,360.0,020324,000.0,W*6D
$GPGGA,203207.224,4217.366,N,07143.353,W,1,12,1.0,0.0,M,0.0,M,,*7B
$GPGSA,A,3,01,02,03,04,05,06,07,08,09,10,11,12,1.0,1.0,1.0*30
$GPRMC,203207.224,A,4217.366,N,07143.353,W,038.9,360.0,020324,000.0,W*6F
$GPGGA,203208.224,4217.377,N,07143.353,W,1,12,1.0,0.0,M,0.0,M,,*74
$GPGSA,A,3,01,02,03,04,05,06,07,08,09,10,11,12,1.0,1.0,1.0*30
$GPRMC,203208.224,A,4217.377,N,07143.353,W,038.9,360.0,020324,000.0,W*60
$GPGGA,203209.224,4217.388,N,07143.353,W,1,12,1.0,0.0,M,0.0,M,,*75
$GPGSA,A,3,01,02,03,04,05,06,07,08,09,10,11,12,1.0,1.0,1.0*30
$GPRMC,203209.224,A,4217.388,N,07143.353,W,038.9,360.0,020324,000.0,W*61
$GPGGA,203210.224,4217.399,N,07143.353,W,1,12,1.0,0.0,M,0.0,M,,*7D
$GPGSA,A,3,01,02,03,04,05,06,07,08,09,10,11,12,1.0,1.0,1.0*30
$GPRMC,203210.224,A,4217.399,N,07143.353,W,038.9,360.0,020324,000.0,W*69
$GPGGA,203211.224,4217.410,N,07143.353,W,1,12,1.0,0.0,M,0.0,M,,*7A
$GPGSA,A,3,01,02,03,04,05,06,07,08,09,10,11,12,1.0,1.0,1.0*30
$GPRMC,203211.224,A,4217.410,N,07143.353,W,038.9,360.0,020324,000.0,W*6E
$GPGGA,203212.224,4217.420,N,07143.353,W,1,12,1.0,0.0,M,0.0,M,,*7A
$GPGSA,A,3,01,02,03,04,05,06,07,08,09,10,11,12,1.0,1.0,1.0*30
$GPRMC,203212.224,A,4217.420,N,07143.353,W,038.9,360.0,020324,000.0,W*6E
$GPGGA,203213.224,4217.431,N,07143.353,W,1,12,1.0,0.0,M,0.0,M,,*7B
$GPGSA,A,3,01,02,03,04,05,06,07,08,09,10,11,12,1.0,1.0,1.0*30
$GPRMC,203213.224,A,4217.431,N,07143.353,W,038.9,360.0,020324,000.0,W*6F
$GPGGA,203214.224,4217.442,N,07143.353,W,1,12,1.0,0.0,M,0.0,M,,*78
$GPGSA,A,3,01,02,03,04,05,06,07,08,09,10,11,12,1.0,1.0,1.0*30
$GPRMC,203214.224,A,4217.442,N,07143.353,W,038.9,360.0,020324,000.0,W*6C
$GPGGA,203215.224,4217.453,N,07143.353,W,1,12,1.0,0.0,M,0.0,M,,*79
$GPGSA,A,3,01,02,03,04,05,06,07,08,09,10,11,12,1.0,1.0,1.0*30
$GPRMC,203215.224,A,4217.453,N,07143.353,W,038.9,360.0,020324,000.0,W*6D
$GPGGA,203216.224,4217.464,N,07143.353,W,1,12,1.0,0.0,M,0.0,M,,*7E
$GPGSA,A,3,01,02,03,04,05,06,07,08,09,10,11,12,1.0,1.0,1.0*30
$GPRMC,203216.224,A,4217.464,N,07143.353,W,038.9,360.0,020324,000.0,W*6A
$GPGGA,203217.224,4217.474,N,07143.353,W,1,12,1.0,0.0,M,0.0,M,,*7E
$GPGSA,A,3,01,02,03,04,05,06,07,08,09,10,11,12,1.0,1.0,1.0*30
$GPRMC,203217.224,A,4217.474,N,07143.353,W,038.9,360.0,020324,000.0,W*6A
$GPGGA,203218.224,4217.485,N,07143.353,W,1,12,1.0,0.0,M,0.0,M,,*7F
$GPGSA,A,3,01,02,03,04,05,06,07,08,09,10,11,12,1.0,1.0,1.0*30
$GPRMC,203218.224,A,4217.485,N,07143.353,W,038.9,360.0,020324,000.0,W*6B
$GPGGA,203219.224,4217.496,N,07143.353,W,1,12,1.0,0.0,M,0.0,M,,*7C
$GPGSA,A,3,01,02,03,04,05,06,07,08,09,10,11,12,1.0,1.0,1.0*30
$GPRMC,203219.224,A,4217.496,N,07143.353,W,038.9,360.0,020324,000.0,W*68
$GPGGA,203220.224,4217.507,N,07143.353,W,1,12,1.0,0.0,M,0.0,M,,*7F
$GPGSA,A,3,01,02,03,04,05,06,07,08,09,10,11,12,1.0,1.0,1.0*30
$GPRMC,203220.224,A,4217.507,N,07143.353,W,038.9,360.0,020324,000.0,W*6B
$GPGGA,203221.224,4217.518,N,07143.353,W,1,12,1.0,0.0,M,0.0,M,,*70
$GPGSA,A,3,01,02,03,04,05,06,07,08,09,10,11,12,1.0,1.0,1.0*30
$GPRMC,203221.224,A,4217.518,N,07143.353,W,038.9,360.0,020324,000.0,W*64
$GPGGA,203222.224,4217.528,N,07143.353,W,1,12,1.0,0.0,M,0.0,M,,*70
$GPGSA,A,3,01,02,03,04,05,06,07,08,09,10,11,12,1.0,1.0,1.0*30
$GPRMC,203222.224,A,4217.528,N,07143.353,W,038.9,360.0,020324,000.0,W*64
$GPGGA,203223.224,4217.539,N,07143.353,W,1,12,1.0,0.0,M,0.0,M,,*71
$GPGSA,A,3,01,02,03,04,05,06,07,08,09,10,11,12,1.0,1.0,1.0*30
$GPRMC,203223.224,A,4217.539,N,07143.353,W,038.9,360.0,020324,000.0,W*65
$GPGGA,203224.224,4217.550,N,07143.353,W,1,12,1.0,0.0,M,0.0,M,,*79
$GPGSA,A,3,01,02,03,04,05,06,07,08,09,10,11,12,1.0,1.0,1.0*30
$GPRMC,203224.224,A,4217.550,N,07143.353,W,038.9,360.0,020324,000.0,W*6D
$GPGGA,203225.224,4217.561,N,07143.353,W,1,12,1.0,0.0,M,0.0,M,,*7A
$GPGSA,A,3,01,02,03,04,05,06,07,08,09,10,11,12,1.0,1.0,1.0*30
$GPRMC,203225.224,A,4217.561,N,07143.353,W,038.9,360.0,020324,000.0,W*6E
$GPGGA,203226.224,4217.571,N,07143.353,W,1,12,1.0,0.0,M,0.0,M,,*78
$GPGSA,A,3,01,02,03,04,05,06,07,08,09,10,11,12,1.0,1.0,1.0*30
$GPRMC,203226.224,A,4217.571,N,07143.353,W,038.9,360.0,020324,000.0,W*6C
$GPGGA,203227.224,4217.582,N,07143.353,W,1,12,1.0,0.0,M,0.0,M,,*75
$GPGSA,A,3,01,02,03,04,05,06,07,08,09,10,11,12,1.0,1.0,1.0*30
$GPRMC,203227.224,A,4217.582,N,07143.353,W,038.9,360.0,020324,000.0,W*61
$GPGGA,203228.224,4217.593,N,07143.353,W,1,12,1.0,0.0,M,0.0,M,,*7A
$GPGSA,A,3,01,02,03,04,05,06,07,08,09,10,11,12,1.0,1.0,1.0*30
$GPRMC,203228.224,A,4217.593,N,07143.353,W,038.9,360.0,020324,000.0,W*6E
$GPGGA,203229.224,4217.604,N,07143.353,W,1,12,1.0,0.0,M,0.0,M,,*76
$GPGSA,A,3,01,02,03,04,05,06,07,08,09,10,11,12,1.0,1.0,1.0*30
$GPRMC,203229.224,A,4217.604,N,07143.353,W,038.9,360.0,020324,000.0,W*62
$GPGGA,203230.224,4217.615,N,07143.353,W,1,12,1.0,0.0,M,0.0,M,,*7E
$GPGSA,A,3,01,02,03,04,05,06,07,08,09,10,11,12,1.0,1.0,1.0*30
$GPRMC,203230.224,A,4217.615,N,07143.353,W,038.9,360.0,020324,000.0,W*6A
$GPGGA,203231.224,4217.625,N,07143.353,W,1,12,1.0,0.0,M,0.0,M,,*7C
$GPGSA,A,3,01,02,03,04,05,06,07,08,09,10,11,12,1.0,1.0,1.0*30
$GPRMC,203231.224,A,4217.625,N,07143.353,W,038.9,360.0,020324,000.0,W*68
$GPGGA,203232.224,4217.636,N,07143.353,W,1,12,1.0,0.0,M,0.0,M,,*7D
$GPGSA,A,3,01,02,03,04,05,06,07,08,09,10,11,12,1.0,1.0,1.0*30
$GPRMC,203232.224,A,4217.636,N,07143.353,W,038.9,360.0,020324,000.0,W*69
$GPGGA,203233.224,4217.647,N,07143.353,W,1,12,1.0,0.0,M,0.0,M,,*7A
$GPGSA,A,3,01,02,03,04,05,06,07,08,09,10,11,12,1.0,1.0,1.0*30
$GPRMC,203233.224,A,4217.647,N,07143.353,W,038.9,360.0,020324,000.0,W*6E
$GPGGA,203234.224,4217.658,N,07143.353,W,1,12,1.0,0.0,M,0.0,M,,*73
$GPGSA,A,3,01,02,03,04,05,06,07,08,09,10,11,12,1.0,1.0,1.0*30
$GPRMC,203234.224,A,4217.658,N,07143.353,W,038.9,360.0,020324,000.0,W*67
$GPGGA,203235.224,4217.669,N,07143.353,W,1,12,1.0,0.0,M,0.0,M,,*70
$GPGSA,A,3,01,02,03,04,05,06,07,08,09,10,11,12,1.0,1.0,1.0*30
$GPRMC,203235.224,A,4217.669,N,07143.353,W,038.9,360.0,020324,000.0,W*64
$GPGGA,203236.224,4217.679,N,07143.353,W,1,12,1.0,0.0,M,0.0,M,,*72
$GPGSA,A,3,01,02,03,04,05,06,07,08,09,10,11,12,1.0,1.0,1.0*30
$GPRMC,203236.224,A,4217.679,N,07143.353,W,038.9,360.0,020324,000.0,W*66
$GPGGA,203237.224,4217.690,N,07143.353,W,1,12,1.0,0.0,M,0.0,M,,*74
$GPGSA,A,3,01,02,03,04,05,06,07,08,09,10,11,12,1.0,1.0,1.0*30
$GPRMC,203237.224,A,4217.690,N,07143.353,W,038.9,360.0,020324,000.0,W*60
$GPGGA,203238.224,4217.701,N,07143.353,W,1,12,1.0,0.0,M,0.0,M,,*72
$GPGSA,A,3,01,02,03,04,05,06,07,08,09,10,11,12,1.0,1.0,1.0*30
$GPRMC,203238.224,A,4217.701,N,07143.353,W,038.9,360.0,020324,000.0,W*66
$GPGGA,203239.224,4217.712,N,07143.353,W,1,12,1.0,0.0,M,0.0,M,,*71
$GPGSA,A,3,01,02,03,04,05,06,07,08,09,10,11,12,1.0,1.0,1.0*30
$GPRMC,203239.224,A,4217.712,N,07143.353,W,038.9,360.0,020324,000.0,W*65
$GPGGA,203240.224,4217.723,N,07143.353,W,1,12,1.0,0.0,M,0.0,M,,*7D
$GPGSA,A,3,01,02,03,04,05,06,07,08,09,10,11,12,1.0,1.0,1.0*30
$GPRMC,203240.224,A,4217.723,N,07143.353,W,038.9,360.0,020324,000.0,W*69
$GPGGA,203241.224,4217.733,N,07143.353,W,1,12,1.0,0.0,M,0.0,M,,*7D
$GPGSA,A,3,01,02,03,04,05,06,07,08,09,10,11,12,1.0,1.0,1.0*30
$GPRMC,203241.224,A,4217.733,N,07143.353,W,038.9,360.0,020324,000.0,W*69
$GPGGA,203242.224,4217.744,N,07143.353,W,1,12,1.0,0.0,M,0.0,M,,*7E
$GPGSA,A,3,01,02,03,04,05,06,07,08,09,10,11,12,1.0,1.0,1.0*30
$GPRMC,203242.224,A,4217.744,N,07143.353,W,038.9,360.0,020324,000.0,W*6A
$GPGGA,203243.224,4217.755,N,07143.353,W,1,12,1.0,0.0,M,0.0,M,,*7F
$GPGSA,A,3,01,02,03,04,05,06,07,08,09,10,11,12,1.0,1.0,1.0*30
$GPRMC,203243.224,A,4217.755,N,07143.353,W,038.9,360.0,020324,000.0,W*6B
$GPGGA,203244.224,4217.766,N,07143.353,W,1,12,1.0,0.0,M,0.0,M,,*78
$GPGSA,A,3,01,02,03,04,05,06,07,08,09,10,11,12,1.0,1.0,1.0*30
$GPRMC,203244.224,A,4217.766,N,07143.353,W,038.9,360.0,020324,000.0,W*6C
$GPGGA,203245.224,4217.777,N,07143.353,W,1,12,1.0,0.0,M,0.0,M,,*79
$GPGSA,A,3,01,02,03,04,05,06,07,08,09,10,11,12,1.0,1.0,1.0*30
$GPRMC,203245.224,A,4217.777,N,07143.353,W,038.9,360.0,020324,000.0,W*6D
$GPGGA,203246.224,4217.787,N,07143.353,W,1,12,1.0,0.0,M,0.0,M,,*75
$GPGSA,A,3,01,02,03,04,05,06,07,08,09,10,11,12,1.0,1.0,1.0*30
$GPRMC,203246.224,A,4217.787,N,07143.353,W,038.9,360.0,020324,000.0,W*61
$GPGGA,203247.224,4217.798,N,07143.353,W,1,12,1.0,0.0,M,0.0,M,,*7A
$GPGSA,A,3,01,02,03,04,05,06,07,08,09,10,11,12,1.0,1.0,1.0*30
$GPRMC,203247.224,A,4217.798,N,07143.353,W,038.9,360.0,020324,000.0,W*6E
$GPGGA,203248.224,4217.809,N,07143.353,W,1,12,1.0,0.0,M,0.0,M,,*72
$GPGSA,A,3,01,02,03,04,05,06,07,08,09,10,11,12,1.0,1.0,1.0*30
$GPRMC,203248.224,A,4217.809,N,07143.353,W,038.9,360.0,020324,000.0,W*66
$GPGGA,203249.224,4217.820,N,07143.353,W,1,12,1.0,0.0,M,0.0,M,,*78
$GPGSA,A,3,01,02,03,04,05,06,07,08,09,10,11,12,1.0,1.0,1.0*30
$GPRMC,203249.224,A,4217.820,N,07143.353,W,038.9,360.0,020324,000.0,W*6C
$GPGGA,203250.224,4217.831,N,07143.353,W,1,12,1.0,0.0,M,0.0,M,,*70
$GPGSA,A,3,01,02,03,04,05,06,07,08,09,10,11,12,1.0,1.0,1.0*30
$GPRMC,203250.224,A,4217.831,N,07143.353,W,038.9,360.0,020324,000.0,W*64
$GPGGA,203251.224,4217.841,N,07143.353,W,1,12,1.0,0.0,M,0.0,M,,*76
$GPGSA,A,3,01,02,03,04,05,06,07,08,09,10,11,12,1.0,1.0,1.0*30
$GPRMC,203251.224,A,4217.841,N,07143.353,W,038.9,360.0,020324,000.0,W*62
$GPGGA,203252.224,4217.852,N,07143.353,W,1,12,1.0,0.0,M,0.0,M,,*77
$GPGSA,A,3,01,02,03,04,05,06,07,08,09,10,11,12,1.0,1.0,1.0*30
$GPRMC,203252.224,A,4217.852,N,07143.353,W,038.9,360.0,020324,000.0,W*63
$GPGGA,203253.224,4217.863,N,07143.353,W,1,12,1.0,0.0,M,0.0,M,,*74
$GPGSA,A,3,01,02,03,04,05,06,07,08,09,10,11,12,1.0,1.0,1.0*30
$GPRMC,203253.224,A,4217.863,N,07143.353,W,038.9,360.0,020324,000.0,W*60
$GPGGA,203254.224,4217.874,N,07143.353,W,1,12,1.0,0.0,M,0.0,M,,*75
$GPGSA,A,3,01,02,03,04,05,06,07,08,09,10,11,12,1.0,1.0,1.0*30
$GPRMC,203254.224,A,4217.874,N,07143.353,W,038.9,360.0,020324,000.0,W*61
$GPGGA,203255.224,4217.884,N,07143.353,W,1,12,1.0,0.0,M,0.0,M,,*7B
$GPGSA,A,3,01,02,03,04,05,06,07,08,09,10,11,12,1.0,1.0,1.0*30
$GPRMC,203255.224,A,4217.884,N,07143.353,W,038.9,360.0,020324,000.0,W*6F
$GPGGA,203256.224,4217.895,N,07143.353,W,1,12,1.0,0.0,M,0.0,M,,*78
$GPGSA,A,3,01,02,03,04,05,06,07,08,09,10,11,12,1.0,1.0,1.0*30
$GPRMC,203256.224,A,4217.895,N,07143.353,W,038.9,360.0,020324,000.0,W*6C
$GPGGA,203257.224,4217.906,N,07143.353,W,1,12,1.0,0.0,M,0.0,M,,*72
$GPGSA,A,3,01,02,03,04,05,06,07,08,09,10,11,12,1.0,1.0,1.0*30
$GPRMC,203257.224,A,4217.906,N,07143.353,W,038.9,360.0,020324,000.0,W*66
$GPGGA,203258.224,4217.917,N,07143.353,W,1,12,1.0,0.0,M,0.0,M,,*7D
$GPGSA,A,3,01,02,03,04,05,06,07,08,09,10,11,12,1.0,1.0,1.0*30
$GPRMC,203258.224,A,4217.917,N,07143.353,W,038.9,360.0,020324,000.0,W*69
$GPGGA,203259.224,4217.928,N,07143.353,W,1,12,1.0,0.0,M,0.0,M,,*70
$GPGSA,A,3,01,02,03,04,05,06,07,08,09,10,11,12,1.0,1.0,1.0*30
$GPRMC,203259.224,A,4217.928,N,07143.353,W,038.9,360.0,020324,000.0,W*64
$GPGGA,203300.224,4217.938,N,07143.353,W,1,12,1.0,0.0,M,0.0,M,,*7C
$GPGSA,A,3,01,02,03,04,05,06,07,08,09,10,11,12,1.0,1.0,1.0*30
$GPRMC,203300.224,A,4217.938,N,07143.353,W,038.9,360.0,020324,000.0,W*68
$GPGGA,203301.224,4217.949,N,07143.353,W,1,12,1.0,0.0,M,0.0,M,,*7B
$GPGSA,A,3,01,02,03,04,05,06,07,08,09,10,11,12,1.0,1.0,1.0*30
$GPRMC,203301.224,A,4217.949,N,07143.353,W,038.9,360.0,020324,000.0,W*6F
$GPGGA,203302.224,4217.960,N,07143.353,W,1,12,1.0,0.0,M,0.0,M,,*73
$GPGSA,A,3,01,02,03,04,05,06,07,08,09,10,11,12,1.0,1.0,1.0*30
$GPRMC,203302.224,A,4217.960,N,07143.353,W,038.9,360.0,020324,000.0,W*67
$GPGGA,203303.224,4217.971,N,07143.353,W,1,12,1.0,0.0,M,0.0,M,,*72
$GPGSA,A,3,01,02,03,04,05,06,07,08,09,10,11,12,1.0,1.0,1.0*30
$GPRMC,203303.224,A,4217.971,N,07143.353,W,038.9,360.0,020324,000.0,W*66
$GPGGA,203304.224,4217.982,N,07143.353,W,1,12,1.0,0.0,M,0.0,M,,*79
$GPGSA,A,3,01,02,03,04,05,06,07,08,09,10,11,12,1.0,1.0,1.0*30
$GPRMC,203304.224,A,4217.982,N,07143.353,W,038.9,360.0,020324,000.0,W*6D
$GPGGA,203305.224,4217.992,N,07143.353,W,1,12,1.0,0.0,M,0.0,M,,*79
$GPGSA,A,3,01,02,03,04,05,06,07,08,09,10,11,12,1.0,1.0,1.0*30
$GPRMC,203305.224,A,4217.992,N,07143.353,W,038.9,360.0,020324,000.0,W*6D
$GPGGA,203306.224,4218.003,N,07143.353,W,1,12,1.0,0.0,M,0.0,M,,*74
$GPGSA,A,3,01,02,03,04,05,06,07,08,09,10,11,12,1.0,1.0,1.0*30
$GPRMC,203306.224,A,4218.003,N,07143.353,W,038.9,360.0,020324,000.0,W*60
$GPGGA,203307.224,4218.014,N,07143.354,W,1,12,1.0,0.0,M,0.0,M,,*74
$GPGSA,A,3,01,02,03,04,05,06,07,08,09,10,11,12,1.0,1.0,1.0*30
$GPRMC,203307.224,A,4218.014,N,07143.354,W,038.9,360.0,020324,000.0,W*60
$GPGGA,203308.224,4218.025,N,07143.354,W,1,12,1.0,0.0,M,0.0,M,,*79
$GPGSA,A,3,01,02,03,04,05,06,07,08,09,10,11,12,1.0,1.0,1.0*30
$GPRMC,203308.224,A,4218.025,N,07143.354,W,038.9,360.0,020324,000.0,W*6D
$GPGGA,203309.224,4218.036,N,07143.354,W,1,12,1.0,0.0,M,0.0,M,,*7A
$GPGSA,A,3,01,02,03,04,05,06,07,08,09,10,11,12,1.0,1.0,1.0*30
$GPRMC,203309.224,A,4218.036,N,07143.354,W,038.9,360.0,020324,000.0,W*6E
$GPGGA,203310.224,4218.046,N,07143.354,W,1,12,1.0,0.0,M,0.0,M,,*75
$GPGSA,A,3,01,02,03,04,05,06,07,08,09,10,11,12,1.0,1.0,1.0*30
$GPRMC,203310.224,A,4218.046,N,07143.354,W,038.9,360.0,020324,000.0,W*61
$GPGGA,203311.224,4218.057,N,07143.354,W,1,12,1.0,0.0,M,0.0,M,,*74
$GPGSA,A,3,01,02,03,04,05,06,07,08,09,10,11,12,1.0,1.0,1.0*30
$GPRMC,203311.224,A,4218.057,N,07143.354,W,038.9,360.0,020324,000.0,W*60
$GPGGA,203312.224,4218.068,N,07143.354,W,1,12,1.0,0.0,M,0.0,M,,*7B
$GPGSA,A,3,01,02,03,04,05,06,07,08,09,10,11,12,1.0,1.0,1.0*30
$GPRMC,203312.224,A,4218.068,N,07143.354,W,038.9,360.0,020324,000.0,W*6F
$GPGGA,203313.224,4218.079,N,07143.354,W,1,12,1.0,0.0,M,0.0,M,,*7A
$GPGSA,A,3,01,02,03,04,05,06,07,08,09,10,11,12,1.0,1.0,1.0*30
$GPRMC,203313.224,A,4218.079,N,07143.354,W,038.9,360.0,020324,000.0,W*6E
$GPGGA,203314.224,4218.090,N,07143.354,W,1,12,1.0,0.0,M,0.0,M,,*7A
$GPGSA,A,3,01,02,03,04,05,06,07,08,09,10,11,12,1.0,1.0,1.0*30
$GPRMC,203314.224,A,4218.090,N,07143.354,W,038.9,360.0,020324,000.0,W*6E
$GPGGA,203315.224,4218.100,N,07143.354,W,1,12,1.0,0.0,M,0.0,M,,*73
$GPGSA,A,3,01,02,03,04,05,06,07,08,09,10,11,12,1.0,1.0,1.0*30
$GPRMC,203315.224,A,4218.100,N,07143.354,W,038.9,360.0,020324,000.0,W*67
$GPGGA,203316.224,4218.111,N,07143.354,W,1,12,1.0,0.0,M,0.0,M,,*70
$GPGSA,A,3,01,02,03,04,05,06,07,08,09,10,11,12,1.0,1.0,1.0*30
$GPRMC,203316.224,A,4218.111,N,07143.354,W,038.9,360.0,020324,000.0,W*64
$GPGGA,203317.224,4218.122,N,07143.354,W,1,12,1.0,0.0,M,0.0,M,,*71
$GPGSA,A,3,01,02,03,04,05,06,07,08,09,10,11,12,1.0,1.0,1.0*30
$GPRMC,203317.224,A,4218.122,N,07143.354,W,038.9,360.0,020324,000.0,W*65
$GPGGA,203318.224,4218.133,N,07143.354,W,1,12,1.0,0.0,M,0.0,M,,*7E
$GPGSA,A,3,01,02,03,04,05,06,07,08,09,10,11,12,1.0,1.0,1.0*30
$GPRMC,203318.224,A,4218.133,N,07143.354,W,038.9,360.0,020324,000.0,W*6A
$GPGGA,203319.224,4218.143,N,07143.354,W,1,12,1.0,0.0,M,0.0,M,,*78
$GPGSA,A,3,01,02,03,04,05,06,07,08,09,10,11,12,1.0,1.0,1.0*30
$GPRMC,203319.224,A,4218.143,N,07143.354,W,038.9,360.0,020324,000.0,W*6C
$GPGGA,203320.224,4218.154,N,07143.354,W,1,12,1.0,0.0,M,0.0,M,,*74
$GPGSA,A,3,01,02,03,04,05,06,07,08,09,10,11,12,1.0,1.0,1.0*30
$GPRMC,203320.224,A,4218.154,N,07143.354,W,038.9,360.0,020324,000.0,W*60
$GPGGA,203321.224,4218.165,N,07143.354,W,1,12,1.0,0.0,M,0.0,M,,*77
$GPGSA,A,3,01,02,03,04,05,06,07,08,09,10,11,12,1.0,1.0,1.0*30
$GPRMC,203321.224,A,4218.165,N,07143.354,W,038.9,360.0,020324,000.0,W*63
$GPGGA,203322.224,4218.176,N,07143.354,W,1,12,1.0,0.0,M,0.0,M,,*76
$GPGSA,A,3,01,02,03,04,05,06,07,08,09,10,11,12,1.0,1.0,1.0*30
$GPRMC,203322.224,A,4218.176,N,07143.354,W,038.9,360.0,020324,000.0,W*62
$GPGGA,203323.224,4218.187,N,07143.354,W,1,12,1.0,0.0,M,0.0,M,,*79
$GPGSA,A,3,01,02,03,04,05,06,07,08,09,10,11,12,1.0,1.0,1.0*30
$GPRMC,203323.224,A,4218.187,N,07143.354,W,038.9,360.0,020324,000.0,W*6D
$GPGGA,203324.224,4218.197,N,07143.354,W,1,12,1.0,0.0,M,0.0,M,,*7F
$GPGSA,A,3,01,02,03,04,05,06,07,08,09,10,11,12,1.0,1.0,1.0*30
$GPRMC,203324.224,A,4218.197,N,07143.354,W,038.9,360.0,020324,000.0,W*6B
$GPGGA,203325.224,4218.208,N,07143.354,W,1,12,1.0,0.0,M,0.0,M,,*7B
$GPGSA,A,3,01,02,03,04,05,06,07,08,09,10,11,12,1.0,1.0,1.0*30
$GPRMC,203325.224,A,4218.208,N,07143.354,W,038.9,360.0,020324,000.0,W*6F
$GPGGA,203326.224,4218.219,N,07143.354,W,1,12,1.0,0.0,M,0.0,M,,*78
$GPGSA,A,3,01,02,03,04,05,06,07,08,09,10,11,12,1.0,1.0,1.0*30
$GPRMC,203326.224,A,4218.219,N,07143.354,W,038.9,360.0,020324,000.0,W*6C
$GPGGA,203327.224,4218.230,N,07143.354,W,1,12,1.0,0.0,M,0.0,M,,*72
$GPGSA,A,3,01,02,03,04,05,06,07,08,09,10,11,12,1.0,1.0,1.0*30
$GPRMC,203327.224,A,4218.230,N,07143.354,W,038.9,360.0,020324,000.0,W*66
$GPGGA,203328.224,4218.241,N,07143.354,W,1,12,1.0,0.0,M,0.0,M,,*7B
$GPGSA,A,3,01,02,03,04,05,06,07,08,09,10,11,12,1.0,1.0,1.0*30
$GPRMC,203328.224,A,4218.241,N,07143.354,W,038.9,360.0,020324,000.0,W*6F
$GPGGA,203329.224,4218.251,N,07143.354,W,1,12,1.0,0.0,M,0.0,M,,*7B
$GPGSA,A,3,01,02,03,04,05,06,07,08,09,10,11,12,1.0,1.0,1.0*30
$GPRMC,203329.224,A,4218.251,N,07143.354,W,038.9,360.0,020324,000.0,W*6F
$GPGGA,203330.224,4218.262,N,07143.354,W,1,12,1.0,0.0,M,0.0,M,,*73
$GPGSA,A,3,01,02,03,04,05,06,07,08,09,10,11,12,1.0,1.0,1.0*30
$GPRMC,203330.224,A,4218.262,N,07143.354,W,038.9,360.0,020324,000.0,W*67
$GPGGA,203331.224,4218.273,N,07143.354,W,1,12,1.0,0.0,M,0.0,M,,*72
$GPGSA,A,3,01,02,03,04,05,06,07,08,09,10,11,12,1.0,1.0,1.0*30
$GPRMC,203331.224,A,4218.273,N,07143.354,W,038.9,360.0,020324,000.0,W*66
$GPGGA,203332.224,4218.284,N,07143.354,W,1,12,1.0,0.0,M,0.0,M,,*79
$GPGSA,A,3,01,02,03,04,05,06,07,08,09,10,11,12,1.0,1.0,1.0*30
$GPRMC,203332.224,A,4218.284,N,07143.354,W,038.9,360.0,020324,000.0,W*6D
$GPGGA,203333.224,4218.295,N,07143.354,W,1,12,1.0,0.0,M,0.0,M,,*78
$GPGSA,A,3,01,02,03,04,05,06,07,08,09,10,11,12,1.0,1.0,1.0*30
$GPRMC,203333.224,A,4218.295,N,07143.354,W,038.9,360.0,020324,000.0,W*6C
$GPGGA,203334.224,4218.305,N,07143.354,W,1,12,1.0,0.0,M,0.0,M,,*77
$GPGSA,A,3,01,02,03,04,05,06,07,08,09,10,11,12,1.0,1.0,1.0*30
$GPRMC,203334.224,A,4218.305,N,07143.354,W,038.9,360.0,020324,000.0,W*63
$GPGGA,203335.224,4218.316,N,07143.354,W,1,12,1.0,0.0,M,0.0,M,,*74
$GPGSA,A,3,01,02,03,04,05,06,07,08,09,10,11,12,1.0,1.0,1.0*30
$GPRMC,203335.224,A,4218.316,N,07143.354,W,038.9,360.0,020324,000.0,W*60
$GPGGA,203336.224,4218.327,N,07143.354,W,1,12,1.0,0.0,M,0.0,M,,*75
$GPGSA,A,3,01,02,03,04,05,06,07,08,09,10,11,12,1.0,1.0,1.0*30
$GPRMC,203336.224,A,4218.327,N,07143.354,W,038.9,360.0,020324,000.0,W*61
$GPGGA,203337.224,4218.338,N,07143.354,W,1,12,1.0,0.0,M,0.0,M,,*7A
$GPGSA,A,3,01,02,03,04,05,06,07,08,09,10,11,12,1.0,1.0,1.0*30
$GPRMC,203337.224,A,4218.338,N,07143.354,W,038.9,360.0,020324,000.0,W*6E
$GPGGA,203338.224,4218.349,N,07143.354,W,1,12,1.0,0.0,M,0.0,M,,*73
$GPGSA,A,3,01,02,03,04,05,06,07,08,09,10,11,12,1.0,1.0,1.0*30
$GPRMC,203338.224,A,4218.349,N,07143.354,W,038.9,360.0,020324,000.0,W*67
$GPGGA,203339.224,4218.359,N,07143.354,W,1,12,1.0,0.0,M,0.0,M,,*73
$GPGSA,A,3,01,02,03,04,05,06,07,08,09,10,11,12,1.0,1.0,1.0*30
$GPRMC,203339.224,A,4218.359,N,07143.354,W,038.9,360.0,020324,000.0,W*67
$GPGGA,203340.224,4218.370,N,07143.354,W,1,12,1.0,0.0,M,0.0,M,,*76
$GPGSA,A,3,01,02,03,04,05,06,07,08,09,10,11,12,1.0,1.0,1.0*30
$GPRMC,203340.224,A,4218.370,N,07143.354,W,038.9,360.0,020324,000.0,W*62
$GPGGA,203341.224,4218.381,N,07143.354,W,1,12,1.0,0.0,M,0.0,M,,*79
$GPGSA,A,3,01,02,03,04,05,06,07,08,09,10,11,12,1.0,1.0,1.0*30
$GPRMC,203341.224,A,4218.381,N,07143.354,W,038.9,360.0,020324,000.0,W*6D
$GPGGA,203342.224,4218.392,N,07143.354,W,1,12,1.0,0.0,M,0.0,M,,*78
$GPGSA,A,3,01,02,03,04,05,06,07,08,09,10,11,12,1.0,1.0,1.0*30
$GPRMC,203342.224,A,4218.392,N,07143.354,W,038.9,360.0,020324,000.0,W*6C
$GPGGA,203343.224,4218.402,N,07143.354,W,1,12,1.0,0.0,M,0.0,M,,*77
$GPGSA,A,3,01,02,03,04,05,06,07,08,09,10,11,12,1.0,1.0,1.0*30
$GPRMC,203343.224,A,4218.402,N,07143.354,W,038.9,360.0,020324,000.0,W*63
$GPGGA,203344.224,4218.413,N,07143.354,W,1,12,1.0,0.0,M,0.0,M,,*70
$GPGSA,A,3,01,02,03,04,05,06,07,08,09,10,11,12,1.0,1.0,1.0*30
$GPRMC,203344.224,A,4218.413,N,07143.354,W,038.9,360.0,020324,000.0,W*64
$GPGGA,203345.224,4218.424,N,07143.354,W,1,12,1.0,0.0,M,0.0,M,,*75
$GPGSA,A,3,01,02,03,04,05,06,07,08,09,10,11,12,1.0,1.0,1.0*30
$GPRMC,203345.224,A,4218.424,N,07143.354,W,038.9,360.0,020324,000.0,W*61
$GPGGA,203346.224,4218.435,N,07143.354,W,1,12,1.0,0.0,M,0.0,M,,*76
$GPGSA,A,3,01,02,03,04,05,06,07,08,09,10,11,12,1.0,1.0,1.0*30
$GPRMC,203346.224,A,4218.435,N,07143.354,W,038.9,360.0,020324,000.0,W*62
$GPGGA,203347.224,4218.446,N,07143.354,W,1,12,1.0,0.0,M,0.0,M,,*73
$GPGSA,A,3,01,02,03,04,05,06,07,08,09,10,11,12,1.0,1.0,1.0*30
$GPRMC,203347.224,A,4218.446,N,07143.354,W,038.9,360.0,020324,000.0,W*67
$GPGGA,203348.224,4218.456,N,07143.354,W,1,12,1.0,0.0,M,0.0,M,,*7D
$GPGSA,A,3,01,02,03,04,05,06,07,08,09,10,11,12,1.0,1.0,1.0*30
$GPRMC,203348.224,A,4218.456,N,07143.354,W,038.9,360.0,020324,000.0,W*69
